{"type":"FeatureCollection","crs":{"type":"name","properties":{"name":"EPSG:4326"}},"features":[{"type":"Feature","id":1,"geometry":{"type":"Point","coordinates":[-90.245546,38.694865]},"properties":{"OBJECTID":1,"SignID":269,"StopID":127,"StopAbbr":"THEMSB","StopName":"THEKLA @ EMERSON SB","OnSt":"THEKLA AVE","AtSt":"EMERSON AVE","Lines":"41","Routes":"3041","StopPos":"NS","PrefTrans":"NO","Bench":"NO","Shelter":"NO","Transfer":"NO","ADA":"NO","PubWay":"NO","CountyCode":"29510","Juris":"ST LOUIS CITY","GPS_Lon":-90.245546,"GPS_Lat":38.694865,"CountyName":"St. Louis"}},{"type":"Feature","id":2,"geometry":{"type":"Point","coordinates":[-90.276549,38.7268750000001]},"properties":{"OBJECTID":2,"SignID":269,"StopID":166,"StopAbbr":"WFBWSB","StopName":"WEST FLORISSANT @ BUZZ WESTFALL SB","OnSt":"W FLORISSANT AVE","AtSt":"PRIVATE","Lines":"74","Routes":"3074","StopPos":"NS","PrefTrans":"NO","Bench":"NO","Shelter":"NO","Transfer":"NO","ADA":"YES","PubWay":"YES","CountyCode":"29189","Juris":"JENNINGS","GPS_Lon":-90.276549,"GPS_Lat":38.726875,"CountyName":"St. Louis County"}},{"type":"Feature","id":3,"geometry":{"type":"Point","coordinates":[-90.300736,38.6496240000001]},"properties":{"OBJECTID":3,"SignID":269,"StopID":172,"StopAbbr":"SKFPSB","StopName":"SKINKER @ FOREST PARK PARKWAY SB","OnSt":"N SKINKER BLVD","AtSt":"FOREST PK PKWY","Lines":"1, 2, 5, 16","Routes":"3001, 3002, 3005, 3016","StopPos":"NS","PrefTrans":"YES","Bench":"YES","Shelter":"NO","Transfer":"YES","ADA":"YES","PubWay":"YES","CountyCode":"29510","Juris":"ST LOUIS CITY","GPS_Lon":-90.300736,"GPS_Lat":38.649624,"CountyName":"St. Louis"}},{"type":"Feature","id":4,"geometry":{"type":"Point","coordinates":[-90.202342,38.625451]},"properties":{"OBJECTID":4,"SignID":269,"StopID":249,"StopAbbr":"CVTCLP","StopName":"CIVIC CENTER TRANSIT CENTER","OnSt":"CIVIC CENTER METROBUS LOOP","AtSt":null,"Lines":"73","Routes":"3073","StopPos":null,"PrefTrans":"YES","Bench":"YES","Shelter":"YES","Transfer":"YES","ADA":"YES","PubWay":"YES","CountyCode":"29510","Juris":"ST LOUIS CITY","GPS_Lon":-90.202342,"GPS_Lat":38.625451,"CountyName":"St. Louis"}},{"type":"Feature","id":5,"geometry":{"type":"Point","coordinates":[-90.2820579999999,38.770546]},"properties":{"OBJECTID":5,"SignID":269,"StopID":269,"StopAbbr":"PEWFWB","StopName":"PERSHALL @ NORTH COUNTY FESTIVAL CENTER WB","OnSt":"PERSHALL RD","AtSt":"N COUNTY FESTIVAL CTR","Lines":"74","Routes":"3074","StopPos":"FS","PrefTrans":"NO","Bench":"NO","Shelter":"NO","Transfer":"NO","ADA":"YES","PubWay":"YES","CountyCode":"29189","Juris":"FERGUSON","GPS_Lon":-90.282058,"GPS_Lat":38.770546,"CountyName":"St. Louis County"}},{"type":"Feature","id":6,"geometry":{"type":"Point","coordinates":[-90.288557,38.770786]},"properties":{"OBJECTID":6,"SignID":269,"StopID":273,"StopAbbr":"FVCCLP","StopName":"STLCC FLORISSANT VALLEY","OnSt":"STLCC FLORISSANT VALLEY DRIVEWAY","AtSt":null,"Lines":"74, 76, 79","Routes":"3074, 3076, 3079","StopPos":null,"PrefTrans":"NO","Bench":"YES","Shelter":"YES","Transfer":"NO","ADA":"YES","PubWay":"YES","CountyCode":"29189","Juris":"FERGUSON","GPS_Lon":-90.288557,"GPS_Lat":38.770786,"CountyName":"St. Louis County"}},{"type":"Feature","id":7,"geometry":{"type":"Point","coordinates":[-90.447131,38.7780460000001]},"properties":{"OBJECTID":7,"SignID":269,"StopID":314,"StopAbbr":"BOINLP","StopName":"175 BOULDER INDUSTRIAL","OnSt":"BOULDER INDUSTRIAL BUS LOOP","AtSt":null,"Lines":"100","Routes":"3100","StopPos":null,"PrefTrans":"NO","Bench":"YES","Shelter":"YES","Transfer":"NO","ADA":"NO","PubWay":"NO","CountyCode":"29189","Juris":"BRIDGETON","GPS_Lon":-90.447131,"GPS_Lat":38.778046,"CountyName":"St. Louis County"}},{"type":"Feature","id":8,"geometry":{"type":"Point","coordinates":[-90.43082,38.750125]},"properties":{"OBJECTID":8,"SignID":269,"StopID":315,"StopAbbr":"DEPLSB","StopName":"DEPAUL @ DEPAUL HOSPITAL SB","OnSt":"DE PAUL DR","AtSt":"DEPAUL HOSPITAL","Lines":"35, 100","Routes":"3035, 3100","StopPos":"NS","PrefTrans":"NO","Bench":"YES","Shelter":"YES","Transfer":"NO","ADA":"YES","PubWay":"YES","CountyCode":"29189","Juris":"BRIDGETON","GPS_Lon":-90.43082,"GPS_Lat":38.750125,"CountyName":"St. Louis County"}},{"type":"Feature","id":9,"geometry":{"type":"Point","coordinates":[-90.453785,38.7630100000001]},"properties":{"OBJECTID":9,"SignID":269,"StopID":353,"StopAbbr":"ATRTEB","StopName":"ATHLETIC WAY @ RIDER TRAIL SOUTH EB","OnSt":"ATHLETIC WAY","AtSt":"RIDER TRL S","Lines":"34","Routes":"3034","StopPos":"FS","PrefTrans":"NO","Bench":"NO","Shelter":"NO","Transfer":"NO","ADA":"NO","PubWay":"YES","CountyCode":"29189","Juris":"EARTH CITY","GPS_Lon":-90.453785,"GPS_Lat":38.76301,"CountyName":"St. Louis County"}},{"type":"Feature","id":10,"geometry":{"type":"Point","coordinates":[-90.265961,38.540064]},"properties":{"OBJECTID":10,"SignID":269,"StopID":393,"StopAbbr":"CTLNLO","StopName":"CATALAN TRANSIT CENTER","OnSt":"CATALAN TRANSIT CENTER","AtSt":null,"Lines":"9","Routes":"3009","StopPos":null,"PrefTrans":"YES","Bench":"NO","Shelter":"NO","Transfer":"YES","ADA":"YES","PubWay":"YES","CountyCode":"29510","Juris":"ST LOUIS CITY","GPS_Lon":-90.265961,"GPS_Lat":38.540064,"CountyName":"St. Louis"}},{"type":"Feature","id":11,"geometry":{"type":"Point","coordinates":[-90.2289679999999,38.57998]},"properties":{"OBJECTID":11,"SignID":269,"StopID":394,"StopAbbr":"BWGSNB","StopName":"BROADWAY @ GASCONADE NB","OnSt":"S BROADWAY","AtSt":"GASCONADE ST","Lines":"8, 73","Routes":"3008, 3073","StopPos":"NS","PrefTrans":"NO","Bench":"NO","Shelter":"NO","Transfer":"NO","ADA":"NO","PubWay":"YES","CountyCode":"29510","Juris":"ST LOUIS CITY","GPS_Lon":-90.228968,"GPS_Lat":38.57998,"CountyName":"St. Louis"}},{"type":"Feature","id":12,"geometry":{"type":"Point","coordinates":[-90.265932,38.5400460000001]},"properties":{"OBJECTID":12,"SignID":269,"StopID":412,"StopAbbr":"CTLNLP","StopName":"CATALAN TRANSIT CENTER","OnSt":"CATALAN TRANSIT CENTER","AtSt":null,"Lines":"8","Routes":"3008","StopPos":null,"PrefTrans":"YES","Bench":"YES","Shelter":"YES","Transfer":"YES","ADA":"YES","PubWay":"YES","CountyCode":"29510","Juris":"ST LOUIS CITY","GPS_Lon":-90.265932,"GPS_Lat":38.540046,"CountyName":"St. Louis"}},{"type":"Feature","id":13,"geometry":{"type":"Point","coordinates":[-90.291397,38.511486]},"properties":{"OBJECTID":13,"SignID":269,"StopID":414,"StopAbbr":"TEBJSB","StopName":"TELEGRAPH @ KINGSTON SB","OnSt":"TELEGRAPH RD","AtSt":"KINGSTON DR","Lines":"9","Routes":"3009","StopPos":"FS","PrefTrans":"NO","Bench":"NO","Shelter":"NO","Transfer":"NO","ADA":"NO","PubWay":"YES","CountyCode":"29189","Juris":"ST LOUIS COUNTY","GPS_Lon":-90.291397,"GPS_Lat":38.511486,"CountyName":"St. Louis County"}},{"type":"Feature","id":14,"geometry":{"type":"Point","coordinates":[-90.3293659999999,38.7995290000001]},"properties":{"OBJECTID":14,"SignID":269,"StopID":460,"StopAbbr":"LISFWB","StopName":"LINDBERGH @ ST. FERDINAND WB","OnSt":"N LINDBERGH BLVD","AtSt":"ST FERDINAND ST","Lines":"77","Routes":"3077","StopPos":"MB","PrefTrans":"NO","Bench":"YES","Shelter":"YES","Transfer":"YES","ADA":"YES","PubWay":"YES","CountyCode":"29189","Juris":"FLORISSANT","GPS_Lon":-90.329366,"GPS_Lat":38.799529,"CountyName":"St. Louis County"}},{"type":"Feature","id":15,"geometry":{"type":"Point","coordinates":[-90.236717,38.626269]},"properties":{"OBJECTID":15,"SignID":269,"StopID":523,"StopAbbr":"GRCHSB","StopName":"GRAND @ CHOUTEAU SB        ","OnSt":"S GRAND BLVD","AtSt":"CHOUTEAU AVE","Lines":"70","Routes":"3070","StopPos":"NS","PrefTrans":"NO","Bench":"NO","Shelter":"NO","Transfer":"YES","ADA":"YES","PubWay":"YES","CountyCode":"29510","Juris":"ST LOUIS CITY","GPS_Lon":-90.236717,"GPS_Lat":38.626269,"CountyName":"St. Louis"}},{"type":"Feature","id":16,"geometry":{"type":"Point","coordinates":[-90.292245,38.701854]},"properties":{"OBJECTID":16,"SignID":269,"StopID":673,"StopAbbr":"LUNBNB","StopName":"LUCAS-HUNT @ NATURAL BRIDGE NB","OnSt":"LUCAS AND HUNT RD","AtSt":"NATURAL BRIDGE RD","Lines":"64","Routes":"3064","StopPos":"FS","PrefTrans":"NO","Bench":"YES","Shelter":"YES","Transfer":"YES","ADA":"YES","PubWay":"YES","CountyCode":"29189","Juris":"NORTHWOODS","GPS_Lon":-90.292245,"GPS_Lat":38.701854,"CountyName":"St. Louis County"}},{"type":"Feature","id":17,"geometry":{"type":"Point","coordinates":[-90.246369,38.563926]},"properties":{"OBJECTID":17,"SignID":269,"StopID":714,"StopAbbr":"VBATNB","StopName":"VIRGINIA @ BATES NB","OnSt":"VIRGINIA AVE","AtSt":"BATES ST","Lines":"73","Routes":"3073","StopPos":"FS","PrefTrans":"NO","Bench":"NO","Shelter":"NO","Transfer":"NO","ADA":"YES","PubWay":"YES","CountyCode":"29510","Juris":"ST LOUIS CITY","GPS_Lon":-90.246369,"GPS_Lat":38.563926,"CountyName":"St. Louis"}},{"type":"Feature","id":18,"geometry":{"type":"Point","coordinates":[-90.246295,38.5645630000001]},"properties":{"OBJECTID":18,"SignID":269,"StopID":721,"StopAbbr":"VIBASB","StopName":"VIRGINIA @ BATES SB","OnSt":"VIRGINIA AVE","AtSt":"BATES ST","Lines":"73","Routes":"3073","StopPos":"NS","PrefTrans":"NO","Bench":"NO","Shelter":"NO","Transfer":"NO","ADA":"NO","PubWay":"NO","CountyCode":"29510","Juris":"ST LOUIS CITY","GPS_Lon":-90.246295,"GPS_Lat":38.564563,"CountyName":"St. Louis"}},{"type":"Feature","id":19,"geometry":{"type":"Point","coordinates":[-90.2759149999999,38.726591]},"properties":{"OBJECTID":19,"SignID":269,"StopID":731,"StopAbbr":"WFBWNB","StopName":"WEST FLORISSANT @ BUZZ WESTFALL PLAZA NB","OnSt":"W FLORISSANT AVE","AtSt":"BUZZ WESTFALL PLAZA","Lines":"74","Routes":"3074","StopPos":"NS","PrefTrans":"NO","Bench":"NO","Shelter":"NO","Transfer":"NO","ADA":"NO","PubWay":"YES","CountyCode":"29189","Juris":"JENNINGS","GPS_Lon":-90.275915,"GPS_Lat":38.726591,"CountyName":"St. Louis County"}},{"type":"Feature","id":20,"geometry":{"type":"Point","coordinates":[-90.199642,38.6320240000001]},"properties":{"OBJECTID":20,"SignID":269,"StopID":759,"StopAbbr":"14WASB","StopName":"14TH STREET @ WASHINGTON SB","OnSt":"N 14TH ST","AtSt":"WASHINGTON AVE","Lines":"41, 74","Routes":"3041, 3074","StopPos":"FS","PrefTrans":"NO","Bench":"NO","Shelter":"NO","Transfer":"YES","ADA":"NO","PubWay":"YES","CountyCode":"29510","Juris":"ST LOUIS CITY","GPS_Lon":-90.199642,"GPS_Lat":38.632024,"CountyName":"St. Louis"}},{"type":"Feature","id":21,"geometry":{"type":"Point","coordinates":[-90.293892,38.564759]},"properties":{"OBJECTID":21,"SignID":269,"StopID":768,"StopAbbr":"HAMPLP","StopName":"HAMPTON-GRAVOIS TRANSIT CENTER","OnSt":"HAMPTON - GRAVOIS TRANSIT CENTER","AtSt":null,"Lines":"10, 90, 95","Routes":"3010, 3090, 3095","StopPos":null,"PrefTrans":"YES","Bench":"YES","Shelter":"YES","Transfer":"YES","ADA":"YES","PubWay":"YES","CountyCode":"29510","Juris":"ST LOUIS CITY","GPS_Lon":-90.293892,"GPS_Lat":38.564759,"CountyName":"St. Louis"}},{"type":"Feature","id":22,"geometry":{"type":"Point","coordinates":[-90.2947959999999,38.564039]},"properties":{"OBJECTID":22,"SignID":269,"StopID":791,"StopAbbr":"GVHMWB","StopName":"GRAVOIS @ HAMPTON WB","OnSt":"GRAVOIS AVE","AtSt":"GERMANIA ST","Lines":"9","Routes":"3009","StopPos":"FS","PrefTrans":"NO","Bench":"NO","Shelter":"NO","Transfer":"YES","ADA":"NO","PubWay":"YES","CountyCode":"29510","Juris":"ST LOUIS CITY","GPS_Lon":-90.294796,"GPS_Lat":38.564039,"CountyName":"St. Louis"}},{"type":"Feature","id":23,"geometry":{"type":"Point","coordinates":[-90.278591,38.5812270000001]},"properties":{"OBJECTID":23,"SignID":269,"StopID":880,"StopAbbr":"KIEINB","StopName":"KINGSHIGHWAY @ EICHELBERGER NB","OnSt":"S KINGSHIGHWAY BLVD","AtSt":"EICHELBERGER ST","Lines":"95","Routes":"3095","StopPos":"FS","PrefTrans":"NO","Bench":"NO","Shelter":"NO","Transfer":"NO","ADA":"NO","PubWay":"NO","CountyCode":"29510","Juris":"ST LOUIS CITY","GPS_Lon":-90.278591,"GPS_Lat":38.581227,"CountyName":"St. Louis"}},{"type":"Feature","id":24,"geometry":{"type":"Point","coordinates":[-90.3010849999999,38.794858]},"properties":{"OBJECTID":24,"SignID":269,"StopID":1340,"StopAbbr":"WFPKSB","StopName":"WATERFORD @ PARKER SB","OnSt":"WATERFORD DR","AtSt":"PARKER RD","Lines":"76","Routes":"3076","StopPos":"FS","PrefTrans":"NO","Bench":"NO","Shelter":"NO","Transfer":"NO","ADA":"YES","PubWay":"YES","CountyCode":"29189","Juris":"FLORISSANT","GPS_Lon":-90.301085,"GPS_Lat":38.794858,"CountyName":"St. Louis County"}},{"type":"Feature","id":25,"geometry":{"type":"Point","coordinates":[-90.285285,38.648548]},"properties":{"OBJECTID":25,"SignID":269,"StopID":1443,"StopAbbr":"DEFPNB","StopName":"DEBALIVIERE AVE @ FOREST PARK METROLINK NB","OnSt":"DE BALIVIERE AVE","AtSt":"FOREST PARK PKY","Lines":"90, 3602","Routes":"3090, 3602","StopPos":"FS","PrefTrans":"YES","Bench":"YES","Shelter":"YES","Transfer":"YES","ADA":"YES","PubWay":"YES","CountyCode":"29510","Juris":"ST LOUIS CITY","GPS_Lon":-90.285285,"GPS_Lat":38.648548,"CountyName":"St. Louis"}},{"type":"Feature","id":26,"geometry":{"type":"Point","coordinates":[-90.2853699999999,38.6480260000001]},"properties":{"OBJECTID":26,"SignID":269,"StopID":1460,"StopAbbr":"DEFPSB","StopName":"DEBALIVIERE AVE @ FOREST PARK METROLINK SB","OnSt":"DE BALIVIERE AVE","AtSt":"FOREST PARK PKY","Lines":"90, 3602","Routes":"3090, 3602","StopPos":"NS","PrefTrans":"YES","Bench":"YES","Shelter":"YES","Transfer":"YES","ADA":"YES","PubWay":"YES","CountyCode":"29510","Juris":"ST LOUIS CITY","GPS_Lon":-90.28537,"GPS_Lat":38.648026,"CountyName":"St. Louis"}},{"type":"Feature","id":27,"geometry":{"type":"Point","coordinates":[-90.208694,38.6319250000001]},"properties":{"OBJECTID":27,"SignID":269,"StopID":1561,"StopAbbr":"OL20EB","StopName":"OLIVE @ 20TH STREET EB","OnSt":"OLIVE ST","AtSt":"N 20TH ST","Lines":"10","Routes":"3010","StopPos":"FS","PrefTrans":"NO","Bench":"NO","Shelter":"NO","Transfer":"NO","ADA":"YES","PubWay":"YES","CountyCode":"29510","Juris":"ST LOUIS CITY","GPS_Lon":-90.208694,"GPS_Lat":38.631925,"CountyName":"St. Louis"}},{"type":"Feature","id":28,"geometry":{"type":"Point","coordinates":[-90.189662,38.6274260000001]},"properties":{"OBJECTID":28,"SignID":269,"StopID":1571,"StopAbbr":"OLBWEB","StopName":"OLIVE @ BROADWAY EB","OnSt":"OLIVE ST","AtSt":"N BROADWAY","Lines":"40","Routes":"3040","StopPos":"NS","PrefTrans":"NO","Bench":"NO","Shelter":"NO","Transfer":"NO","ADA":"YES","PubWay":"YES","CountyCode":"29510","Juris":"ST LOUIS CITY","GPS_Lon":-90.189662,"GPS_Lat":38.627426,"CountyName":"St. Louis"}},{"type":"Feature","id":29,"geometry":{"type":"Point","coordinates":[-90.196694,38.630502]},"properties":{"OBJECTID":29,"SignID":269,"StopID":1577,"StopAbbr":"LOTKWB","StopName":"LOCUST @ TUCKER WB","OnSt":"LOCUST ST","AtSt":"N TUCKER BLVD","Lines":"32, 40","Routes":"3032, 3040","StopPos":"NS","PrefTrans":"NO","Bench":"NO","Shelter":"NO","Transfer":"YES","ADA":"YES","PubWay":"YES","CountyCode":"29510","Juris":"ST LOUIS CITY","GPS_Lon":-90.196694,"GPS_Lat":38.630502,"CountyName":"St. Louis"}},{"type":"Feature","id":30,"geometry":{"type":"Point","coordinates":[-90.1999509999999,38.6309660000001]},"properties":{"OBJECTID":30,"SignID":269,"StopID":1579,"StopAbbr":"14LOSB","StopName":"14TH STREET @ LOCUST SB","OnSt":"N 14TH ST","AtSt":"LOCUST ST","Lines":"32, 40, 41, 74","Routes":"3032, 3040, 3041, 3074","StopPos":"NS","PrefTrans":"NO","Bench":"YES","Shelter":"NO","Transfer":"YES","ADA":"YES","PubWay":"YES","CountyCode":"29510","Juris":"ST LOUIS CITY","GPS_Lon":-90.199951,"GPS_Lat":38.630966,"CountyName":"St. Louis"}},{"type":"Feature","id":31,"geometry":{"type":"Point","coordinates":[-90.204076,38.628832]},"properties":{"OBJECTID":31,"SignID":269,"StopID":1587,"StopAbbr":"MA16WB","StopName":"MARKET @ 16TH STREET WB","OnSt":"MARKET ST","AtSt":"S 16TH ST","Lines":"4, 94","Routes":"3004, 3094","StopPos":"FS","PrefTrans":"NO","Bench":"YES","Shelter":"YES","Transfer":"NO","ADA":"YES","PubWay":"YES","CountyCode":"29510","Juris":"ST LOUIS CITY","GPS_Lon":-90.204076,"GPS_Lat":38.628832,"CountyName":"St. Louis"}},{"type":"Feature","id":32,"geometry":{"type":"Point","coordinates":[-90.208674,38.629713]},"properties":{"OBJECTID":32,"SignID":269,"StopID":1589,"StopAbbr":"MA20EB","StopName":"MARKET @ 20TH STREET EB","OnSt":"MARKET ST","AtSt":"S 20TH ST","Lines":"4, 94","Routes":"3004, 3094","StopPos":"FS","PrefTrans":"NO","Bench":"NO","Shelter":"NO","Transfer":"NO","ADA":"YES","PubWay":"YES","CountyCode":"29510","Juris":"ST LOUIS CITY","GPS_Lon":-90.208674,"GPS_Lat":38.629713,"CountyName":"St. Louis"}},{"type":"Feature","id":33,"geometry":{"type":"Point","coordinates":[-90.203616,38.62859]},"properties":{"OBJECTID":33,"SignID":269,"StopID":1591,"StopAbbr":"MA16EB","StopName":"MARKET @ 16TH STREET EB","OnSt":"MARKET ST","AtSt":"S 16TH ST","Lines":"4, 94","Routes":"3004, 3094","StopPos":"FS","PrefTrans":"NO","Bench":"YES","Shelter":"YES","Transfer":"NO","ADA":"YES","PubWay":"YES","CountyCode":"29510","Juris":"ST LOUIS CITY","GPS_Lon":-90.203616,"GPS_Lat":38.62859,"CountyName":"St. Louis"}},{"type":"Feature","id":34,"geometry":{"type":"Point","coordinates":[-90.199371,38.6372410000001]},"properties":{"OBJECTID":34,"SignID":269,"StopID":1609,"StopAbbr":"CASEWB","StopName":"CARR @ SELBY PLACE WB","OnSt":"N CARR DR","AtSt":"N SELBY PL","Lines":"41","Routes":"3041","StopPos":"NS","PrefTrans":"NO","Bench":"NO","Shelter":"NO","Transfer":"NO","ADA":"NO","PubWay":"YES","CountyCode":"29510","Juris":"ST LOUIS CITY","GPS_Lon":-90.199371,"GPS_Lat":38.637241,"CountyName":"St. Louis"}},{"type":"Feature","id":35,"geometry":{"type":"Point","coordinates":[-90.196363,38.617599]},"properties":{"OBJECTID":35,"SignID":269,"StopID":1624,"StopAbbr":"CH7TEB","StopName":"CHOUTEAU @ 7TH STREET EB","OnSt":"CHOUTEAU AVE","AtSt":"S 7TH ST","Lines":"30","Routes":"3030","StopPos":"NS","PrefTrans":"NO","Bench":"NO","Shelter":"NO","Transfer":"NO","ADA":"YES","PubWay":"YES","CountyCode":"29510","Juris":"ST LOUIS","GPS_Lon":-90.196363,"GPS_Lat":38.617599,"CountyName":"St. Louis"}},{"type":"Feature","id":36,"geometry":{"type":"Point","coordinates":[-90.187391,38.628589]},"properties":{"OBJECTID":36,"SignID":269,"StopID":1631,"StopAbbr":"4TLONB","StopName":"4TH STREET @ LOCUST NB","OnSt":"N 4TH ST","AtSt":"LOCUST ST","Lines":"40","Routes":"3040","StopPos":"FS","PrefTrans":"NO","Bench":"YES","Shelter":"YES","Transfer":"NO","ADA":"YES","PubWay":"YES","CountyCode":"29510","Juris":"ST LOUIS","GPS_Lon":-90.187391,"GPS_Lat":38.628589,"CountyName":"St. Louis"}},{"type":"Feature","id":37,"geometry":{"type":"Point","coordinates":[-90.186817,38.629888]},"properties":{"OBJECTID":37,"SignID":269,"StopID":1632,"StopAbbr":"4TWANB","StopName":"4TH STREET @ WASHINGTON NB","OnSt":"N 4TH ST","AtSt":"WASHINGTON AVE","Lines":"40","Routes":"3040","StopPos":"FS","PrefTrans":"NO","Bench":"NO","Shelter":"NO","Transfer":"YES","ADA":"YES","PubWay":"YES","CountyCode":"29510","Juris":"ST LOUIS CITY","GPS_Lon":-90.186817,"GPS_Lat":38.629888,"CountyName":"St. Louis"}},{"type":"Feature","id":38,"geometry":{"type":"Point","coordinates":[-90.1933109999999,38.6290920000001]},"properties":{"OBJECTID":38,"SignID":269,"StopID":1642,"StopAbbr":"9TLONB","StopName":"9TH STREET @ LOCUST NB","OnSt":"N 9TH ST","AtSt":"LOCUST ST","Lines":"32","Routes":"3032","StopPos":"NS","PrefTrans":"NO","Bench":"NO","Shelter":"NO","Transfer":"NO","ADA":"YES","PubWay":"YES","CountyCode":"29510","Juris":"ST LOUIS","GPS_Lon":-90.193311,"GPS_Lat":38.629092,"CountyName":"St. Louis"}},{"type":"Feature","id":39,"geometry":{"type":"Point","coordinates":[-90.19247,38.63172]},"properties":{"OBJECTID":39,"SignID":269,"StopID":1644,"StopAbbr":"9TWANB","StopName":"9TH STREET @ LUCAS NB","OnSt":"N 9TH ST","AtSt":"LUCAS AVE","Lines":"32","Routes":"3032","StopPos":"FS","PrefTrans":"NO","Bench":"NO","Shelter":"NO","Transfer":"NO","ADA":"YES","PubWay":"YES","CountyCode":"29510","Juris":"ST LOUIS","GPS_Lon":-90.19247,"GPS_Lat":38.63172,"CountyName":"St. Louis"}},{"type":"Feature","id":40,"geometry":{"type":"Point","coordinates":[-90.1915289999999,38.634194]},"properties":{"OBJECTID":40,"SignID":269,"StopID":1648,"StopAbbr":"9TCONB","StopName":"9TH STREET @ COLE NB","OnSt":"N 9TH ST","AtSt":"COLE ST","Lines":"32","Routes":"3032","StopPos":"NS","PrefTrans":"NO","Bench":"NO","Shelter":"NO","Transfer":"NO","ADA":"YES","PubWay":"YES","CountyCode":"29510","Juris":"ST LOUIS","GPS_Lon":-90.191529,"GPS_Lat":38.634194,"CountyName":"St. Louis"}},{"type":"Feature","id":41,"geometry":{"type":"Point","coordinates":[-90.2013719999999,38.6193440000001]},"properties":{"OBJECTID":41,"SignID":269,"StopID":1649,"StopAbbr":"TKCHNB","StopName":"TUCKER @ CHOUTEAU NB","OnSt":"S TUCKER BLVD","AtSt":"CHOUTEAU AVE","Lines":"73","Routes":"3073","StopPos":"FS","PrefTrans":"NO","Bench":"NO","Shelter":"NO","Transfer":"YES","ADA":"NO","PubWay":"NO","CountyCode":"29510","Juris":"ST LOUIS CITY","GPS_Lon":-90.201372,"GPS_Lat":38.619344,"CountyName":"St. Louis"}},{"type":"Feature","id":42,"geometry":{"type":"Point","coordinates":[-90.1990929999999,38.6249950000001]},"properties":{"OBJECTID":42,"SignID":269,"StopID":1650,"StopAbbr":"TUCLNB","StopName":"TUCKER @ CLARK NB","OnSt":"S TUCKER BLVD","AtSt":"CLARK AVE","Lines":"19, 97","Routes":"3019, 3097","StopPos":"NS","PrefTrans":"NO","Bench":"YES","Shelter":"YES","Transfer":"NO","ADA":"YES","PubWay":"YES","CountyCode":"29510","Juris":"ST LOUIS","GPS_Lon":-90.199093,"GPS_Lat":38.624995,"CountyName":"St. Louis"}},{"type":"Feature","id":43,"geometry":{"type":"Point","coordinates":[-90.1975209999999,38.629221]},"properties":{"OBJECTID":43,"SignID":269,"StopID":1652,"StopAbbr":"TUPINB","StopName":"TUCKER @ PINE NB","OnSt":"N TUCKER BLVD","AtSt":"PINE ST","Lines":"19, 97","Routes":"3019, 3097","StopPos":"FS","PrefTrans":"NO","Bench":"YES","Shelter":"YES","Transfer":"YES","ADA":"YES","PubWay":"YES","CountyCode":"29510","Juris":"ST LOUIS","GPS_Lon":-90.197521,"GPS_Lat":38.629221,"CountyName":"St. Louis"}},{"type":"Feature","id":44,"geometry":{"type":"Point","coordinates":[-90.195163,38.6359620000001]},"properties":{"OBJECTID":44,"SignID":269,"StopID":1656,"StopAbbr":"TKCONB","StopName":"TUCKER @ COLE NB","OnSt":"N TUCKER BLVD","AtSt":"COLE ST","Lines":"19","Routes":"3019","StopPos":"FS","PrefTrans":"NO","Bench":"NO","Shelter":"NO","Transfer":"YES","ADA":"YES","PubWay":"YES","CountyCode":"29510","Juris":"ST LOUIS CITY","GPS_Lon":-90.195163,"GPS_Lat":38.635962,"CountyName":"St. Louis"}},{"type":"Feature","id":45,"geometry":{"type":"Point","coordinates":[-90.197165,38.6310750000001]},"properties":{"OBJECTID":45,"SignID":269,"StopID":1660,"StopAbbr":"TUSTSB","StopName":"TUCKER @ ST. CHARLES SB","OnSt":"N TUCKER BLVD","AtSt":"ST CHARLES ST","Lines":"19, 97","Routes":"3019, 3097","StopPos":"FS","PrefTrans":"NO","Bench":"NO","Shelter":"NO","Transfer":"NO","ADA":"YES","PubWay":"YES","CountyCode":"29510","Juris":"ST LOUIS","GPS_Lon":-90.197165,"GPS_Lat":38.631075,"CountyName":"St. Louis"}},{"type":"Feature","id":46,"geometry":{"type":"Point","coordinates":[-90.1977909999999,38.6292970000001]},"properties":{"OBJECTID":46,"SignID":269,"StopID":1661,"StopAbbr":"TUPISB","StopName":"TUCKER @ PINE SB","OnSt":"N TUCKER BLVD","AtSt":"PINE ST","Lines":"19, 97","Routes":"3019, 3097","StopPos":"NS","PrefTrans":"NO","Bench":"NO","Shelter":"NO","Transfer":"YES","ADA":"YES","PubWay":"YES","CountyCode":"29510","Juris":"ST LOUIS","GPS_Lon":-90.197791,"GPS_Lat":38.629297,"CountyName":"St. Louis"}},{"type":"Feature","id":47,"geometry":{"type":"Point","coordinates":[-90.198269,38.6272960000001]},"properties":{"OBJECTID":47,"SignID":269,"StopID":1662,"StopAbbr":"TUMANB","StopName":"TUCKER @ MARKET NB","OnSt":"S TUCKER BLVD","AtSt":"MARKET ST","Lines":"19, 97","Routes":"3019, 3097","StopPos":"NS","PrefTrans":"NO","Bench":"NO","Shelter":"NO","Transfer":"NO","ADA":"YES","PubWay":"YES","CountyCode":"29510","Juris":"ST LOUIS","GPS_Lon":-90.198269,"GPS_Lat":38.627296,"CountyName":"St. Louis"}},{"type":"Feature","id":48,"geometry":{"type":"Point","coordinates":[-90.199581,38.6245690000001]},"properties":{"OBJECTID":48,"SignID":269,"StopID":1663,"StopAbbr":"TUSPSB","StopName":"TUCKER @ SPRUCE SB","OnSt":"S TUCKER BLVD","AtSt":"SPRUCE ST","Lines":"19, 97","Routes":"3019, 3097","StopPos":"NS","PrefTrans":"NO","Bench":"YES","Shelter":"YES","Transfer":"NO","ADA":"YES","PubWay":"YES","CountyCode":"29510","Juris":"ST LOUIS","GPS_Lon":-90.199581,"GPS_Lat":38.624569,"CountyName":"St. Louis"}},{"type":"Feature","id":49,"geometry":{"type":"Point","coordinates":[-90.192939,38.6338670000001]},"properties":{"OBJECTID":49,"SignID":269,"StopID":1664,"StopAbbr":"10MLSB","StopName":"10TH STREET @ DR ML KING SB","OnSt":"N 10TH ST","AtSt":"DR MARTIN LUTHER KING DR","Lines":"32","Routes":"3032","StopPos":"NS","PrefTrans":"NO","Bench":"NO","Shelter":"NO","Transfer":"NO","ADA":"YES","PubWay":"NO","CountyCode":"29510","Juris":"ST LOUIS","GPS_Lon":-90.192939,"GPS_Lat":38.633867,"CountyName":"St. Louis"}},{"type":"Feature","id":50,"geometry":{"type":"Point","coordinates":[-90.193534,38.632052]},"properties":{"OBJECTID":50,"SignID":269,"StopID":1665,"StopAbbr":"10LCSB","StopName":"10TH STREET @ LUCAS SB","OnSt":"N 10TH ST","AtSt":"LUCAS AVE","Lines":"32","Routes":"3032","StopPos":"NS","PrefTrans":"NO","Bench":"NO","Shelter":"NO","Transfer":"NO","ADA":"YES","PubWay":"YES","CountyCode":"29510","Juris":"ST LOUIS","GPS_Lon":-90.193534,"GPS_Lat":38.632052,"CountyName":"St. Louis"}},{"type":"Feature","id":51,"geometry":{"type":"Point","coordinates":[-90.187482,38.631763]},"properties":{"OBJECTID":51,"SignID":269,"StopID":1680,"StopAbbr":"BWCPSB","StopName":"BROADWAY @ CONVENTION PLAZA SB","OnSt":"BROADWAY","AtSt":"CONVENTION PLZ","Lines":"40","Routes":"3040","StopPos":"NS","PrefTrans":"NO","Bench":"NO","Shelter":"NO","Transfer":"NO","ADA":"YES","PubWay":"YES","CountyCode":"29510","Juris":"ST LOUIS","GPS_Lon":-90.187482,"GPS_Lat":38.631763,"CountyName":"St. Louis"}},{"type":"Feature","id":52,"geometry":{"type":"Point","coordinates":[-90.1885059999999,38.628946]},"properties":{"OBJECTID":52,"SignID":269,"StopID":1682,"StopAbbr":"BRLCSB","StopName":"BROADWAY @ LOCUST SB","OnSt":"N BROADWAY","AtSt":"LOCUST ST","Lines":"40","Routes":"3040","StopPos":"NS","PrefTrans":"NO","Bench":"NO","Shelter":"NO","Transfer":"NO","ADA":"YES","PubWay":"YES","CountyCode":"29510","Juris":"ST LOUIS","GPS_Lon":-90.188506,"GPS_Lat":38.628946,"CountyName":"St. Louis"}},{"type":"Feature","id":53,"geometry":{"type":"Point","coordinates":[-90.194399,38.6152450000001]},"properties":{"OBJECTID":53,"SignID":269,"StopID":1693,"StopAbbr":"BWHISB","StopName":"BROADWAY @ HICKORY SB","OnSt":"S BROADWAY","AtSt":"HICKORY ST","Lines":"30","Routes":"3030","StopPos":"NS","PrefTrans":"NO","Bench":"NO","Shelter":"NO","Transfer":"NO","ADA":"YES","PubWay":"YES","CountyCode":"29510","Juris":"ST LOUIS","GPS_Lon":-90.194399,"GPS_Lat":38.615245,"CountyName":"St. Louis"}},{"type":"Feature","id":54,"geometry":{"type":"Point","coordinates":[-90.245436,38.615704]},"properties":{"OBJECTID":54,"SignID":269,"StopID":1712,"StopAbbr":"SH39WB","StopName":"SHAW @ 39TH STREET WB","OnSt":"SHAW BLVD","AtSt":"S 39TH ST","Lines":"8","Routes":"3008","StopPos":"FS","PrefTrans":"NO","Bench":"NO","Shelter":"NO","Transfer":"NO","ADA":"YES","PubWay":"YES","CountyCode":"29510","Juris":"ST LOUIS","GPS_Lon":-90.245436,"GPS_Lat":38.615704,"CountyName":"St. Louis"}},{"type":"Feature","id":55,"geometry":{"type":"Point","coordinates":[-90.247687,38.61591]},"properties":{"OBJECTID":55,"SignID":269,"StopID":1713,"StopAbbr":"SHLWWB","StopName":"SHAW @ LAWRENCE WB","OnSt":"SHAW BLVD","AtSt":"LAWRENCE ST","Lines":"8","Routes":"3008","StopPos":"NS","PrefTrans":"NO","Bench":"NO","Shelter":"NO","Transfer":"NO","ADA":"NO","PubWay":"YES","CountyCode":"29510","Juris":"ST LOUIS","GPS_Lon":-90.247687,"GPS_Lat":38.61591,"CountyName":"St. Louis"}},{"type":"Feature","id":56,"geometry":{"type":"Point","coordinates":[-90.250374,38.6161500000001]},"properties":{"OBJECTID":56,"SignID":269,"StopID":1714,"StopAbbr":"SHTHWB","StopName":"SHAW @ THURMAN WB","OnSt":"SHAW BLVD","AtSt":"THURMAN AVE","Lines":"8","Routes":"3008","StopPos":"NS","PrefTrans":"NO","Bench":"NO","Shelter":"NO","Transfer":"NO","ADA":"YES","PubWay":"YES","CountyCode":"29510","Juris":"ST LOUIS","GPS_Lon":-90.250374,"GPS_Lat":38.61615,"CountyName":"St. Louis"}},{"type":"Feature","id":57,"geometry":{"type":"Point","coordinates":[-90.25341,38.6164430000001]},"properties":{"OBJECTID":57,"SignID":269,"StopID":1715,"StopAbbr":"SHKLWB","StopName":"SHAW @ KLEMM WB","OnSt":"SHAW BLVD","AtSt":"KLEMM ST","Lines":"8","Routes":"3008","StopPos":"NS","PrefTrans":"NO","Bench":"NO","Shelter":"NO","Transfer":"NO","ADA":"NO","PubWay":"YES","CountyCode":"29510","Juris":"ST LOUIS","GPS_Lon":-90.25341,"GPS_Lat":38.616443,"CountyName":"St. Louis"}},{"type":"Feature","id":58,"geometry":{"type":"Point","coordinates":[-90.281751,38.6063140000001]},"properties":{"OBJECTID":58,"SignID":269,"StopID":1737,"StopAbbr":"ARSUWB","StopName":"ARSENAL @ SUBLETTE WB","OnSt":"ARSENAL ST","AtSt":"SUBLETTE AVE","Lines":"30","Routes":"3030","StopPos":"FS","PrefTrans":"NO","Bench":"NO","Shelter":"NO","Transfer":"NO","ADA":"NO","PubWay":"YES","CountyCode":"29510","Juris":"ST LOUIS","GPS_Lon":-90.281751,"GPS_Lat":38.606314,"CountyName":"St. Louis"}},{"type":"Feature","id":59,"geometry":{"type":"Point","coordinates":[-90.285952,38.6067210000001]},"properties":{"OBJECTID":59,"SignID":269,"StopID":1739,"StopAbbr":"ARPRWB","StopName":"ARSENAL @ PARC RIDGE WAY WB","OnSt":"ARSENAL ST","AtSt":"PARC RIDGE WAY","Lines":"30","Routes":"3030","StopPos":"FS","PrefTrans":"NO","Bench":"NO","Shelter":"NO","Transfer":"NO","ADA":"NO","PubWay":"YES","CountyCode":"29510","Juris":"ST LOUIS","GPS_Lon":-90.285952,"GPS_Lat":38.606721,"CountyName":"St. Louis"}},{"type":"Feature","id":60,"geometry":{"type":"Point","coordinates":[-90.287481,38.6068780000001]},"properties":{"OBJECTID":60,"SignID":269,"StopID":1740,"StopAbbr":"AR59WB","StopName":"ARSENAL @ 59TH STREET WB","OnSt":"ARSENAL ST","AtSt":"S 59TH ST","Lines":"30","Routes":"3030","StopPos":"FS","PrefTrans":"NO","Bench":"NO","Shelter":"NO","Transfer":"NO","ADA":"NO","PubWay":"YES","CountyCode":"29510","Juris":"ST LOUIS","GPS_Lon":-90.287481,"GPS_Lat":38.606878,"CountyName":"St. Louis"}},{"type":"Feature","id":61,"geometry":{"type":"Point","coordinates":[-90.289182,38.60706]},"properties":{"OBJECTID":61,"SignID":269,"StopID":1741,"StopAbbr":"ARHAWB","StopName":"ARSENAL @ HAMPTON WB","OnSt":"ARSENAL ST","AtSt":"HAMPTON AVE","Lines":"30","Routes":"3030","StopPos":"FS","PrefTrans":"NO","Bench":"NO","Shelter":"NO","Transfer":"YES","ADA":"YES","PubWay":"YES","CountyCode":"29510","Juris":"ST LOUIS CITY","GPS_Lon":-90.289182,"GPS_Lat":38.60706,"CountyName":"St. Louis"}},{"type":"Feature","id":62,"geometry":{"type":"Point","coordinates":[-90.3076739999999,38.6038070000001]},"properties":{"OBJECTID":62,"SignID":269,"StopID":1751,"StopAbbr":"JAFYSB","StopName":"JAMIESON @ FYLER SB","OnSt":"JAMIESON AVE","AtSt":"FYLER AVE","Lines":"16","Routes":"3016","StopPos":"NS","PrefTrans":"NO","Bench":"NO","Shelter":"NO","Transfer":"NO","ADA":"NO","PubWay":"YES","CountyCode":"29510","Juris":"ST LOUIS","GPS_Lon":-90.307674,"GPS_Lat":38.603807,"CountyName":"St. Louis"}},{"type":"Feature","id":63,"geometry":{"type":"Point","coordinates":[-90.308841,38.597179]},"properties":{"OBJECTID":63,"SignID":269,"StopID":1757,"StopAbbr":"JATHSB","StopName":"JAMIESON @ THOLOZAN SB","OnSt":"JAMIESON AVE","AtSt":"THOLOZAN AVE","Lines":"16","Routes":"3016","StopPos":"FS","PrefTrans":"NO","Bench":"NO","Shelter":"NO","Transfer":"NO","ADA":"NO","PubWay":"YES","CountyCode":"29510","Juris":"ST LOUIS","GPS_Lon":-90.308841,"GPS_Lat":38.597179,"CountyName":"St. Louis"}},{"type":"Feature","id":64,"geometry":{"type":"Point","coordinates":[-90.309714,38.592321]},"properties":{"OBJECTID":64,"SignID":269,"StopID":1758,"StopAbbr":"JASUSB","StopName":"JAMIESON @ SUTHERLAND SB","OnSt":"JAMIESON AVE","AtSt":"SUTHERLAND AVE","Lines":"16","Routes":"3016","StopPos":"NS","PrefTrans":"NO","Bench":"NO","Shelter":"NO","Transfer":"NO","ADA":"NO","PubWay":"YES","CountyCode":"29510","Juris":"ST LOUIS CITY","GPS_Lon":-90.309714,"GPS_Lat":38.592321,"CountyName":"St. Louis"}},{"type":"Feature","id":65,"geometry":{"type":"Point","coordinates":[-90.308429,38.598121]},"properties":{"OBJECTID":65,"SignID":269,"StopID":1771,"StopAbbr":"JAPENB","StopName":"JAMIESON @ PERNOD NB","OnSt":"JAMIESON AVE","AtSt":"PERNOD AVE","Lines":"16","Routes":"3016","StopPos":"NS","PrefTrans":"NO","Bench":"YES","Shelter":"NO","Transfer":"NO","ADA":"NO","PubWay":"YES","CountyCode":"29510","Juris":"ST LOUIS","GPS_Lon":-90.308429,"GPS_Lat":38.598121,"CountyName":"St. Louis"}},{"type":"Feature","id":66,"geometry":{"type":"Point","coordinates":[-90.307484,38.603781]},"properties":{"OBJECTID":66,"SignID":269,"StopID":1776,"StopAbbr":"JAFYNB","StopName":"JAMIESON @ FYLER NB","OnSt":"JAMIESON AVE","AtSt":"FYLER AVE","Lines":"16","Routes":"3016","StopPos":"FS","PrefTrans":"NO","Bench":"NO","Shelter":"NO","Transfer":"NO","ADA":"NO","PubWay":"YES","CountyCode":"29510","Juris":"ST LOUIS","GPS_Lon":-90.307484,"GPS_Lat":38.603781,"CountyName":"St. Louis"}},{"type":"Feature","id":67,"geometry":{"type":"Point","coordinates":[-90.3068939999999,38.606906]},"properties":{"OBJECTID":67,"SignID":269,"StopID":1778,"StopAbbr":"JASMNB","StopName":"JAMIESON @ SMILEY NB","OnSt":"JAMIESON AVE","AtSt":"SMILEY AVE","Lines":"16","Routes":"3016","StopPos":"NS","PrefTrans":"NO","Bench":"NO","Shelter":"NO","Transfer":"NO","ADA":"NO","PubWay":"YES","CountyCode":"29510","Juris":"ST LOUIS","GPS_Lon":-90.306894,"GPS_Lat":38.606906,"CountyName":"St. Louis"}},{"type":"Feature","id":68,"geometry":{"type":"Point","coordinates":[-90.2885419999999,38.606925]},"properties":{"OBJECTID":68,"SignID":269,"StopID":1785,"StopAbbr":"ARHAEB","StopName":"ARSENAL @ HAMPTON EB","OnSt":"ARSENAL ST","AtSt":"HAMPTON AVE","Lines":"30","Routes":"3030","StopPos":"FS","PrefTrans":"NO","Bench":"NO","Shelter":"NO","Transfer":"YES","ADA":"YES","PubWay":"YES","CountyCode":"29510","Juris":"ST LOUIS CITY","GPS_Lon":-90.288542,"GPS_Lat":38.606925,"CountyName":"St. Louis"}},{"type":"Feature","id":69,"geometry":{"type":"Point","coordinates":[-90.2855939999999,38.606627]},"properties":{"OBJECTID":69,"SignID":269,"StopID":1787,"StopAbbr":"ARDAEB","StopName":"ARSENAL @ DALTON EB","OnSt":"ARSENAL ST","AtSt":"DALTON AVE","Lines":"30","Routes":"3030","StopPos":"FS","PrefTrans":"NO","Bench":"NO","Shelter":"NO","Transfer":"NO","ADA":"NO","PubWay":"YES","CountyCode":"29510","Juris":"ST LOUIS","GPS_Lon":-90.285594,"GPS_Lat":38.606627,"CountyName":"St. Louis"}},{"type":"Feature","id":70,"geometry":{"type":"Point","coordinates":[-90.2817249999999,38.6062400000001]},"properties":{"OBJECTID":70,"SignID":269,"StopID":1789,"StopAbbr":"ARSUEB","StopName":"ARSENAL @ SUBLETTE EB","OnSt":"ARSENAL ST","AtSt":"SUBLETTE AVE","Lines":"30","Routes":"3030","StopPos":"NS","PrefTrans":"NO","Bench":"YES","Shelter":"YES","Transfer":"NO","ADA":"YES","PubWay":"YES","CountyCode":"29510","Juris":"ST LOUIS","GPS_Lon":-90.281725,"GPS_Lat":38.60624,"CountyName":"St. Louis"}},{"type":"Feature","id":71,"geometry":{"type":"Point","coordinates":[-90.255661,38.6165370000001]},"properties":{"OBJECTID":71,"SignID":269,"StopID":1810,"StopAbbr":"SHTOEB","StopName":"SHAW @ TOWER GROVE EB","OnSt":"SHAW BLVD","AtSt":"TOWER GROVE AVE","Lines":"8","Routes":"3008","StopPos":"FS","PrefTrans":"NO","Bench":"NO","Shelter":"NO","Transfer":"NO","ADA":"YES","PubWay":"YES","CountyCode":"29510","Juris":"ST LOUIS","GPS_Lon":-90.255661,"GPS_Lat":38.616537,"CountyName":"St. Louis"}},{"type":"Feature","id":72,"geometry":{"type":"Point","coordinates":[-90.250846,38.6161260000001]},"properties":{"OBJECTID":72,"SignID":269,"StopID":1811,"StopAbbr":"SHTREB","StopName":"SHAW @ THURMAN EB","OnSt":"SHAW BLVD","AtSt":"THURMAN AVE","Lines":"8","Routes":"3008","StopPos":"NS","PrefTrans":"NO","Bench":"NO","Shelter":"NO","Transfer":"NO","ADA":"YES","PubWay":"YES","CountyCode":"29510","Juris":"ST LOUIS CITY","GPS_Lon":-90.250846,"GPS_Lat":38.616126,"CountyName":"St. Louis"}},{"type":"Feature","id":73,"geometry":{"type":"Point","coordinates":[-90.248232,38.6158770000001]},"properties":{"OBJECTID":73,"SignID":269,"StopID":1812,"StopAbbr":"SHLWEB","StopName":"SHAW @ LAWRENCE EB","OnSt":"SHAW BLVD","AtSt":"LAWRENCE ST","Lines":"8","Routes":"3008","StopPos":"NS","PrefTrans":"NO","Bench":"NO","Shelter":"NO","Transfer":"NO","ADA":"YES","PubWay":"YES","CountyCode":"29510","Juris":"ST LOUIS","GPS_Lon":-90.248232,"GPS_Lat":38.615877,"CountyName":"St. Louis"}},{"type":"Feature","id":74,"geometry":{"type":"Point","coordinates":[-90.2455159999999,38.61562]},"properties":{"OBJECTID":74,"SignID":269,"StopID":1813,"StopAbbr":"SH39EB","StopName":"SHAW @ 39TH STREET EB","OnSt":"SHAW BLVD","AtSt":"S 39TH ST","Lines":"8","Routes":"3008","StopPos":"NS","PrefTrans":"NO","Bench":"YES","Shelter":"YES","Transfer":"YES","ADA":"NO","PubWay":"YES","CountyCode":"29510","Juris":"ST LOUIS","GPS_Lon":-90.245516,"GPS_Lat":38.61562,"CountyName":"St. Louis"}},{"type":"Feature","id":75,"geometry":{"type":"Point","coordinates":[-90.194035,38.615421]},"properties":{"OBJECTID":75,"SignID":269,"StopID":1832,"StopAbbr":"BRCNNB","StopName":"BROADWAY @ CONVENT NB","OnSt":"S BROADWAY","AtSt":"CONVENT ST","Lines":"30","Routes":"3030","StopPos":"NS","PrefTrans":"NO","Bench":"NO","Shelter":"NO","Transfer":"NO","ADA":"NO","PubWay":"YES","CountyCode":"29510","Juris":"ST LOUIS","GPS_Lon":-90.194035,"GPS_Lat":38.615421,"CountyName":"St. Louis"}},{"type":"Feature","id":76,"geometry":{"type":"Point","coordinates":[-90.307946,38.61695]},"properties":{"OBJECTID":76,"SignID":269,"StopID":1848,"StopAbbr":"MNNOSB","StopName":"MANCHESTER @ NOONAN SB","OnSt":"MANCHESTER AVE","AtSt":"NOONAN AVE","Lines":"31","Routes":"3031","StopPos":"FS","PrefTrans":"NO","Bench":"NO","Shelter":"NO","Transfer":"NO","ADA":"YES","PubWay":"YES","CountyCode":"29510","Juris":"ST LOUIS","GPS_Lon":-90.307946,"GPS_Lat":38.61695,"CountyName":"St. Louis"}},{"type":"Feature","id":77,"geometry":{"type":"Point","coordinates":[-90.312782,38.6148690000001]},"properties":{"OBJECTID":77,"SignID":269,"StopID":1850,"StopAbbr":"MAYASB","StopName":"MANCHESTER @ YALE SB","OnSt":"MANCHESTER RD","AtSt":"YALE AVE","Lines":"31","Routes":"3031","StopPos":"FS","PrefTrans":"NO","Bench":"YES","Shelter":"YES","Transfer":"YES","ADA":"YES","PubWay":"YES","CountyCode":"29189","Juris":"MAPLEWOOD","GPS_Lon":-90.312782,"GPS_Lat":38.614869,"CountyName":"St. Louis County"}},{"type":"Feature","id":78,"geometry":{"type":"Point","coordinates":[-90.316986,38.613439]},"properties":{"OBJECTID":78,"SignID":269,"StopID":1853,"StopAbbr":"MAOAWB","StopName":"MANCHESTER @ OAKVIEW TERRACE WB","OnSt":"MANCHESTER RD","AtSt":"OAKVIEW TER","Lines":"31","Routes":"3031","StopPos":"NS","PrefTrans":"NO","Bench":"YES","Shelter":"YES","Transfer":"NO","ADA":"YES","PubWay":"YES","CountyCode":"29189","Juris":"MAPLEWOOD","GPS_Lon":-90.316986,"GPS_Lat":38.613439,"CountyName":"St. Louis County"}},{"type":"Feature","id":79,"geometry":{"type":"Point","coordinates":[-90.237499,38.568344]},"properties":{"OBJECTID":79,"SignID":269,"StopID":1904,"StopAbbr":"BRNESB","StopName":"BROADWAY @ NEBRASKA SB","OnSt":"S BROADWAY","AtSt":"NEBRASKA AVE","Lines":"8","Routes":"3008","StopPos":"NS","PrefTrans":"NO","Bench":"NO","Shelter":"NO","Transfer":"NO","ADA":"NO","PubWay":"YES","CountyCode":"29510","Juris":"ST LOUIS","GPS_Lon":-90.237499,"GPS_Lat":38.568344,"CountyName":"St. Louis"}},{"type":"Feature","id":80,"geometry":{"type":"Point","coordinates":[-90.241364,38.5629030000001]},"properties":{"OBJECTID":80,"SignID":269,"StopID":1908,"StopAbbr":"BRFASB","StopName":"BROADWAY @ FASSEN SB","OnSt":"S BROADWAY","AtSt":"FASSEN ST","Lines":"8","Routes":"3008","StopPos":"NS","PrefTrans":"NO","Bench":"NO","Shelter":"NO","Transfer":"NO","ADA":"NO","PubWay":"YES","CountyCode":"29510","Juris":"ST LOUIS","GPS_Lon":-90.241364,"GPS_Lat":38.562903,"CountyName":"St. Louis"}},{"type":"Feature","id":81,"geometry":{"type":"Point","coordinates":[-90.241453,38.562512]},"properties":{"OBJECTID":81,"SignID":269,"StopID":1911,"StopAbbr":"BRFANB","StopName":"BROADWAY @ FASSEN NB","OnSt":"S BROADWAY","AtSt":"FASSEN ST","Lines":"8","Routes":"3008","StopPos":"NS","PrefTrans":"NO","Bench":"YES","Shelter":"YES","Transfer":"NO","ADA":"NO","PubWay":"NO","CountyCode":"29510","Juris":"ST LOUIS","GPS_Lon":-90.241453,"GPS_Lat":38.562512,"CountyName":"St. Louis"}},{"type":"Feature","id":82,"geometry":{"type":"Point","coordinates":[-90.2383379999999,38.566878]},"properties":{"OBJECTID":82,"SignID":269,"StopID":1914,"StopAbbr":"BRMDNB","StopName":"BROADWAY @ MAEDER NB","OnSt":"S BROADWAY","AtSt":"MAEDER ST","Lines":"8","Routes":"3008","StopPos":"NS","PrefTrans":"NO","Bench":"NO","Shelter":"NO","Transfer":"NO","ADA":"YES","PubWay":"NO","CountyCode":"29510","Juris":"ST LOUIS","GPS_Lon":-90.238338,"GPS_Lat":38.566878,"CountyName":"St. Louis"}},{"type":"Feature","id":83,"geometry":{"type":"Point","coordinates":[-90.2375279999999,38.568003]},"properties":{"OBJECTID":83,"SignID":269,"StopID":1915,"StopAbbr":"BRNENB","StopName":"BROADWAY @ NEBRASKA NB","OnSt":"S BROADWAY","AtSt":"NEBRASKA AVE","Lines":"8","Routes":"3008","StopPos":"NS","PrefTrans":"NO","Bench":"NO","Shelter":"NO","Transfer":"NO","ADA":"YES","PubWay":"YES","CountyCode":"29510","Juris":"ST LOUIS","GPS_Lon":-90.237528,"GPS_Lat":38.568003,"CountyName":"St. Louis"}},{"type":"Feature","id":84,"geometry":{"type":"Point","coordinates":[-90.294066,38.588673]},"properties":{"OBJECTID":84,"SignID":269,"StopID":1949,"StopAbbr":"HMDENB","StopName":"HAMPTON @ DEVONSHIRE NB","OnSt":"HAMPTON AVE","AtSt":"DEVONSHIRE AVE","Lines":"90","Routes":"3090","StopPos":"NS","PrefTrans":"NO","Bench":"NO","Shelter":"NO","Transfer":"NO","ADA":"NO","PubWay":"NO","CountyCode":"29510","Juris":"ST LOUIS","GPS_Lon":-90.294066,"GPS_Lat":38.588673,"CountyName":"St. Louis"}},{"type":"Feature","id":85,"geometry":{"type":"Point","coordinates":[-90.2944669999999,38.5908590000001]},"properties":{"OBJECTID":85,"SignID":269,"StopID":1950,"StopAbbr":"HASUNB","StopName":"HAMPTON @ SUTHERLAND NB","OnSt":"HAMPTON AVE","AtSt":"SUTHERLAND AVE","Lines":"90","Routes":"3090","StopPos":"FS","PrefTrans":"NO","Bench":"NO","Shelter":"NO","Transfer":"NO","ADA":"YES","PubWay":"YES","CountyCode":"29510","Juris":"ST LOUIS","GPS_Lon":-90.294467,"GPS_Lat":38.590859,"CountyName":"St. Louis"}},{"type":"Feature","id":86,"geometry":{"type":"Point","coordinates":[-90.319511,38.6126340000001]},"properties":{"OBJECTID":86,"SignID":269,"StopID":1975,"StopAbbr":"MNSTEB","StopName":"MANCHESTER @ SUTTON EB","OnSt":"MANCHESTER RD","AtSt":"SUTTON BLVD","Lines":"31","Routes":"3031","StopPos":"FS","PrefTrans":"NO","Bench":"NO","Shelter":"NO","Transfer":"NO","ADA":"YES","PubWay":"YES","CountyCode":"29189","Juris":"MAPLEWOOD","GPS_Lon":-90.319511,"GPS_Lat":38.612634,"CountyName":"St. Louis County"}},{"type":"Feature","id":87,"geometry":{"type":"Point","coordinates":[-90.3173589999999,38.6132420000001]},"properties":{"OBJECTID":87,"SignID":269,"StopID":1976,"StopAbbr":"MAMREB","StopName":"MANCHESTER @ MARSHALL EB","OnSt":"MANCHESTER RD","AtSt":"MARSHALL AVE","Lines":"31","Routes":"3031","StopPos":"NS","PrefTrans":"NO","Bench":"YES","Shelter":"YES","Transfer":"NO","ADA":"YES","PubWay":"YES","CountyCode":"29189","Juris":"MAPLEWOOD","GPS_Lon":-90.317359,"GPS_Lat":38.613242,"CountyName":"St. Louis County"}},{"type":"Feature","id":88,"geometry":{"type":"Point","coordinates":[-90.312767,38.614767]},"properties":{"OBJECTID":88,"SignID":269,"StopID":1980,"StopAbbr":"MAYAEB","StopName":"MANCHESTER @ YALE EB","OnSt":"MANCHESTER RD","AtSt":"YALE AVE","Lines":"31","Routes":"3031","StopPos":"NS","PrefTrans":"NO","Bench":"NO","Shelter":"NO","Transfer":"YES","ADA":"YES","PubWay":"YES","CountyCode":"29189","Juris":"MAPLEWOOD","GPS_Lon":-90.312767,"GPS_Lat":38.614767,"CountyName":"St. Louis County"}},{"type":"Feature","id":89,"geometry":{"type":"Point","coordinates":[-90.238207,38.643587]},"properties":{"OBJECTID":89,"SignID":269,"StopID":2010,"StopAbbr":"DEVAWB","StopName":"DELMAR @ VANDEVENTER WB","OnSt":"DELMAR BLVD","AtSt":"N VANDEVENTER AVE","Lines":"97","Routes":"3097","StopPos":"FS","PrefTrans":"NO","Bench":"NO","Shelter":"NO","Transfer":"NO","ADA":"NO","PubWay":"YES","CountyCode":"29510","Juris":"ST LOUIS","GPS_Lon":-90.238207,"GPS_Lat":38.643587,"CountyName":"St. Louis"}},{"type":"Feature","id":90,"geometry":{"type":"Point","coordinates":[-90.240196,38.6444690000001]},"properties":{"OBJECTID":90,"SignID":269,"StopID":2011,"StopAbbr":"DE39WB","StopName":"3965 DELMAR WB","OnSt":"DELMAR BLVD","AtSt":"3965 DELMAR BLVD","Lines":"97","Routes":"3097","StopPos":"MB","PrefTrans":"NO","Bench":"NO","Shelter":"NO","Transfer":"NO","ADA":"NO","PubWay":"NO","CountyCode":"29510","Juris":"ST LOUIS","GPS_Lon":-90.240196,"GPS_Lat":38.644469,"CountyName":"St. Louis"}},{"type":"Feature","id":91,"geometry":{"type":"Point","coordinates":[-90.2426139999999,38.6455340000001]},"properties":{"OBJECTID":91,"SignID":269,"StopID":2012,"StopAbbr":"DESAWB","StopName":"DELMAR @ SARAH WB","OnSt":"N DELMAR BLVD","AtSt":"N SARAH ST","Lines":"97","Routes":"3097","StopPos":"FS","PrefTrans":"NO","Bench":"NO","Shelter":"NO","Transfer":"YES","ADA":"YES","PubWay":"YES","CountyCode":"29510","Juris":"ST LOUIS","GPS_Lon":-90.242614,"GPS_Lat":38.645534,"CountyName":"St. Louis"}},{"type":"Feature","id":92,"geometry":{"type":"Point","coordinates":[-90.2452969999999,38.646716]},"properties":{"OBJECTID":92,"SignID":269,"StopID":2013,"StopAbbr":"DEWHWB","StopName":"DELMAR @ WHITTIER WB","OnSt":"N DELMAR BLVD","AtSt":"N WHITTIER ST","Lines":"97","Routes":"3097","StopPos":"NS","PrefTrans":"NO","Bench":"NO","Shelter":"NO","Transfer":"NO","ADA":"NO","PubWay":"NO","CountyCode":"29510","Juris":"ST LOUIS","GPS_Lon":-90.245297,"GPS_Lat":38.646716,"CountyName":"St. Louis"}},{"type":"Feature","id":93,"geometry":{"type":"Point","coordinates":[-90.2475479999999,38.647704]},"properties":{"OBJECTID":93,"SignID":269,"StopID":2014,"StopAbbr":"DEPEWB","StopName":"DELMAR @ PENDLETON WB","OnSt":"DELMAR BLVD","AtSt":"PENDLETON AVE","Lines":"97","Routes":"3097","StopPos":"NS","PrefTrans":"NO","Bench":"NO","Shelter":"NO","Transfer":"NO","ADA":"YES","PubWay":"NO","CountyCode":"29510","Juris":"ST LOUIS","GPS_Lon":-90.247548,"GPS_Lat":38.647704,"CountyName":"St. Louis"}},{"type":"Feature","id":94,"geometry":{"type":"Point","coordinates":[-90.250828,38.649122]},"properties":{"OBJECTID":94,"SignID":269,"StopID":2015,"StopAbbr":"DENEWB","StopName":"DELMAR @ NEWSTEAD WB","OnSt":"DELMAR BLVD","AtSt":"N NEWSTEAD AVE","Lines":"97","Routes":"3097","StopPos":"FS","PrefTrans":"NO","Bench":"NO","Shelter":"NO","Transfer":"NO","ADA":"NO","PubWay":"NO","CountyCode":"29510","Juris":"ST LOUIS","GPS_Lon":-90.250828,"GPS_Lat":38.649122,"CountyName":"St. Louis"}},{"type":"Feature","id":95,"geometry":{"type":"Point","coordinates":[-90.25327,38.650202]},"properties":{"OBJECTID":95,"SignID":269,"StopID":2016,"StopAbbr":"DETAWB","StopName":"DELMAR @ TAYLOR WB","OnSt":"N DELMAR BLVD","AtSt":"N TAYLOR AVE","Lines":"97","Routes":"3097","StopPos":"NS","PrefTrans":"NO","Bench":"YES","Shelter":"NO","Transfer":"YES","ADA":"YES","PubWay":"YES","CountyCode":"29510","Juris":"ST LOUIS","GPS_Lon":-90.25327,"GPS_Lat":38.650202,"CountyName":"St. Louis"}},{"type":"Feature","id":96,"geometry":{"type":"Point","coordinates":[-90.257264,38.651144]},"properties":{"OBJECTID":96,"SignID":269,"StopID":2017,"StopAbbr":"DEWAWB","StopName":"DELMAR @ WALTON WB","OnSt":"DELMAR","AtSt":"WALTON AVE.","Lines":"97","Routes":"3097","StopPos":"NS","PrefTrans":"NO","Bench":"NO","Shelter":"NO","Transfer":"NO","ADA":"YES","PubWay":"YES","CountyCode":"29510","Juris":"ST LOUIS","GPS_Lon":-90.257264,"GPS_Lat":38.651144,"CountyName":"St. Louis"}},{"type":"Feature","id":97,"geometry":{"type":"Point","coordinates":[-90.2601319999999,38.6513870000001]},"properties":{"OBJECTID":97,"SignID":269,"StopID":2018,"StopAbbr":"DEEUWB","StopName":"DELMAR @ EUCLID WB","OnSt":"N DELMAR BLVD","AtSt":"N EUCLID AVE","Lines":"97","Routes":"3097","StopPos":"NS","PrefTrans":"NO","Bench":"NO","Shelter":"NO","Transfer":"NO","ADA":"YES","PubWay":"YES","CountyCode":"29510","Juris":"ST LOUIS","GPS_Lon":-90.260132,"GPS_Lat":38.651387,"CountyName":"St. Louis"}},{"type":"Feature","id":98,"geometry":{"type":"Point","coordinates":[-90.2640509999999,38.6517000000001]},"properties":{"OBJECTID":98,"SignID":269,"StopID":2019,"StopAbbr":"DLKHWB","StopName":"DELMAR @ KINGSHIGHWAY WB","OnSt":"N DELMAR BLVD","AtSt":"N KINGSHIGHWAY BLVD","Lines":"97","Routes":"3097","StopPos":"FS","PrefTrans":"NO","Bench":"YES","Shelter":"YES","Transfer":"YES","ADA":"YES","PubWay":"YES","CountyCode":"29510","Juris":"ST LOUIS CITY","GPS_Lon":-90.264051,"GPS_Lat":38.6517,"CountyName":"St. Louis"}},{"type":"Feature","id":99,"geometry":{"type":"Point","coordinates":[-90.26689,38.651979]},"properties":{"OBJECTID":99,"SignID":269,"StopID":2020,"StopAbbr":"DEACWB","StopName":"DELMAR @ ACADEMY WB","OnSt":"DELMAR BLVD","AtSt":"ACADEMY AVE","Lines":"97","Routes":"3097","StopPos":"NS","PrefTrans":"NO","Bench":"NO","Shelter":"NO","Transfer":"NO","ADA":"YES","PubWay":"YES","CountyCode":"29510","Juris":"ST LOUIS","GPS_Lon":-90.26689,"GPS_Lat":38.651979,"CountyName":"St. Louis"}},{"type":"Feature","id":100,"geometry":{"type":"Point","coordinates":[-90.2710069999999,38.652432]},"properties":{"OBJECTID":100,"SignID":269,"StopID":2022,"StopAbbr":"DECNWB","StopName":"DELMAR @ CLARENDON WB","OnSt":"DELMAR BLVD","AtSt":"CLARENDON AVE","Lines":"97","Routes":"3097","StopPos":"FS","PrefTrans":"NO","Bench":"NO","Shelter":"NO","Transfer":"NO","ADA":"YES","PubWay":"YES","CountyCode":"29510","Juris":"ST LOUIS","GPS_Lon":-90.271007,"GPS_Lat":38.652432,"CountyName":"St. Louis"}},{"type":"Feature","id":101,"geometry":{"type":"Point","coordinates":[-90.273015,38.6526890000001]},"properties":{"OBJECTID":101,"SignID":269,"StopID":2023,"StopAbbr":"DEUNWB","StopName":"DELMAR @ UNION WB","OnSt":"DELMAR BLVD","AtSt":"UNION BLVD","Lines":"97","Routes":"3097","StopPos":"NS","PrefTrans":"NO","Bench":"YES","Shelter":"YES","Transfer":"YES","ADA":"YES","PubWay":"YES","CountyCode":"29510","Juris":"ST LOUIS","GPS_Lon":-90.273015,"GPS_Lat":38.652689,"CountyName":"St. Louis"}},{"type":"Feature","id":102,"geometry":{"type":"Point","coordinates":[-90.2752609999999,38.6531580000001]},"properties":{"OBJECTID":102,"SignID":269,"StopID":2024,"StopAbbr":"DE53WB","StopName":"5351 DELMAR WB","OnSt":"DELMAR BLVD","AtSt":"UNION BLVD","Lines":"97","Routes":"3097","StopPos":"MB","PrefTrans":"NO","Bench":"NO","Shelter":"NO","Transfer":"NO","ADA":"YES","PubWay":"YES","CountyCode":"29510","Juris":"ST LOUIS","GPS_Lon":-90.275261,"GPS_Lat":38.653158,"CountyName":"St. Louis"}},{"type":"Feature","id":103,"geometry":{"type":"Point","coordinates":[-90.279411,38.653557]},"properties":{"OBJECTID":103,"SignID":269,"StopID":2025,"StopAbbr":"DEBLWB","StopName":"DELMAR @ BELT WB","OnSt":"DELMAR BLVD","AtSt":"BELT AVE","Lines":"97","Routes":"3097","StopPos":"FS","PrefTrans":"NO","Bench":"YES","Shelter":"YES","Transfer":"NO","ADA":"YES","PubWay":"YES","CountyCode":"29510","Juris":"ST LOUIS","GPS_Lon":-90.279411,"GPS_Lat":38.653557,"CountyName":"St. Louis"}},{"type":"Feature","id":104,"geometry":{"type":"Point","coordinates":[-90.282494,38.6538680000001]},"properties":{"OBJECTID":104,"SignID":269,"StopID":2026,"StopAbbr":"DECLWB","StopName":"DELMAR @ CLARA WB","OnSt":"DELMAR BLVD","AtSt":"CLARA AVE","Lines":"97","Routes":"3097","StopPos":"FS","PrefTrans":"NO","Bench":"YES","Shelter":"YES","Transfer":"NO","ADA":"YES","PubWay":"YES","CountyCode":"29510","Juris":"ST LOUIS","GPS_Lon":-90.282494,"GPS_Lat":38.653868,"CountyName":"St. Louis"}},{"type":"Feature","id":105,"geometry":{"type":"Point","coordinates":[-90.284016,38.6540150000001]},"properties":{"OBJECTID":105,"SignID":269,"StopID":2027,"StopAbbr":"DEDBWB","StopName":"DELMAR @ DEBALIVIERE WB","OnSt":"DELMAR BLVD","AtSt":"DE BALIVIERE AVE","Lines":"97","Routes":"3097","StopPos":"NS","PrefTrans":"NO","Bench":"YES","Shelter":"NO","Transfer":"YES","ADA":"YES","PubWay":"YES","CountyCode":"29510","Juris":"ST LOUIS CITY","GPS_Lon":-90.284016,"GPS_Lat":38.654015,"CountyName":"St. Louis"}},{"type":"Feature","id":106,"geometry":{"type":"Point","coordinates":[-90.2871739999999,38.654342]},"properties":{"OBJECTID":106,"SignID":269,"StopID":2028,"StopAbbr":"DEGOWB","StopName":"DELMAR @ GOODFELLOW WB","OnSt":"DELMAR BLVD","AtSt":"GOODFELLOW BLVD","Lines":"97","Routes":"3097","StopPos":"FS","PrefTrans":"NO","Bench":"YES","Shelter":"YES","Transfer":"YES","ADA":"YES","PubWay":"YES","CountyCode":"29510","Juris":"ST LOUIS","GPS_Lon":-90.287174,"GPS_Lat":38.654342,"CountyName":"St. Louis"}},{"type":"Feature","id":107,"geometry":{"type":"Point","coordinates":[-90.294881,38.6554110000001]},"properties":{"OBJECTID":107,"SignID":269,"StopID":2030,"StopAbbr":"DPDLWB","StopName":"DELMAR LOOP TRANSIT CENTER WB","OnSt":"DES PERES AVE","AtSt":"DELMAR BLVD","Lines":"97, 3602","Routes":"3097, 3602","StopPos":"MB","PrefTrans":"YES","Bench":"NO","Shelter":"NO","Transfer":"YES","ADA":"YES","PubWay":"YES","CountyCode":"29510","Juris":"ST LOUIS CITY","GPS_Lon":-90.294881,"GPS_Lat":38.655411,"CountyName":"St. Louis"}},{"type":"Feature","id":108,"geometry":{"type":"Point","coordinates":[-90.297872,38.6552790000001]},"properties":{"OBJECTID":108,"SignID":269,"StopID":2031,"StopAbbr":"DE61WB","StopName":"DELMAR @ 6161 DELMAR WB","OnSt":"DELMAR BLVD","AtSt":"6161 DELMAR BLVD","Lines":"2, 16, 97","Routes":"3002, 3016, 3097","StopPos":"MB","PrefTrans":"NO","Bench":"NO","Shelter":"NO","Transfer":"YES","ADA":"YES","PubWay":"YES","CountyCode":"29510","Juris":"ST LOUIS CITY","GPS_Lon":-90.297872,"GPS_Lat":38.655279,"CountyName":"St. Louis"}},{"type":"Feature","id":109,"geometry":{"type":"Point","coordinates":[-90.302241,38.6557540000001]},"properties":{"OBJECTID":109,"SignID":269,"StopID":2033,"StopAbbr":"DEEAWB","StopName":"DELMAR @ LIMIT WB","OnSt":"DELMAR BLVD","AtSt":"LIMIT AVE","Lines":"97","Routes":"3097","StopPos":"NS","PrefTrans":"NO","Bench":"NO","Shelter":"NO","Transfer":"NO","ADA":"YES","PubWay":"YES","CountyCode":"29189","Juris":"ST LOUIS","GPS_Lon":-90.302241,"GPS_Lat":38.655754,"CountyName":"St. Louis County"}},{"type":"Feature","id":110,"geometry":{"type":"Point","coordinates":[-90.305803,38.656073]},"properties":{"OBJECTID":110,"SignID":269,"StopID":2035,"StopAbbr":"DELEWB","StopName":"DELMAR @ LELAND WB","OnSt":"DELMAR BLVD","AtSt":"LELAND AVE","Lines":"97","Routes":"3097","StopPos":"NS","PrefTrans":"NO","Bench":"NO","Shelter":"NO","Transfer":"NO","ADA":"YES","PubWay":"YES","CountyCode":"29189","Juris":"UNIVERSITY CITY","GPS_Lon":-90.305803,"GPS_Lat":38.656073,"CountyName":"St. Louis County"}},{"type":"Feature","id":111,"geometry":{"type":"Point","coordinates":[-90.309429,38.656478]},"properties":{"OBJECTID":111,"SignID":269,"StopID":2037,"StopAbbr":"DLKIWB","StopName":"DELMAR @ KINGSLAND WB","OnSt":"DELMAR BLVD","AtSt":"KINGSLAND AVE","Lines":"97","Routes":"3097","StopPos":"FS","PrefTrans":"NO","Bench":"NO","Shelter":"NO","Transfer":"NO","ADA":"YES","PubWay":"YES","CountyCode":"29189","Juris":"UNIVERSITY CITY","GPS_Lon":-90.309429,"GPS_Lat":38.656478,"CountyName":"St. Louis County"}},{"type":"Feature","id":112,"geometry":{"type":"Point","coordinates":[-90.3151349999999,38.6570120000001]},"properties":{"OBJECTID":112,"SignID":269,"StopID":2038,"StopAbbr":"DEYAWB","StopName":"DELMAR @ YALE WB","OnSt":"N DELMAR BLVD","AtSt":"N YALE AVE","Lines":"97","Routes":"3097","StopPos":"FS","PrefTrans":"NO","Bench":"NO","Shelter":"NO","Transfer":"NO","ADA":"YES","PubWay":"YES","CountyCode":"29189","Juris":"UNIVERSITY CITY","GPS_Lon":-90.315135,"GPS_Lat":38.657012,"CountyName":"St. Louis County"}},{"type":"Feature","id":113,"geometry":{"type":"Point","coordinates":[-90.317509,38.6572390000001]},"properties":{"OBJECTID":113,"SignID":269,"StopID":2039,"StopAbbr":"DEVSWB","StopName":"DELMAR @ VASSAR WB","OnSt":"DELMAR BLVD","AtSt":"N VASSAR AVE","Lines":"97","Routes":"3097","StopPos":"FS","PrefTrans":"NO","Bench":"NO","Shelter":"NO","Transfer":"NO","ADA":"YES","PubWay":"YES","CountyCode":"29189","Juris":"UNIVERSITY CITY","GPS_Lon":-90.317509,"GPS_Lat":38.657239,"CountyName":"St. Louis County"}},{"type":"Feature","id":114,"geometry":{"type":"Point","coordinates":[-90.320456,38.657566]},"properties":{"OBJECTID":114,"SignID":269,"StopID":2040,"StopAbbr":"DEMIWB","StopName":"DELMAR @ MIDLAND WB","OnSt":"DELMAR BLVD","AtSt":"MIDLAND BLVD","Lines":"97","Routes":"3097","StopPos":"NS","PrefTrans":"NO","Bench":"NO","Shelter":"NO","Transfer":"NO","ADA":"YES","PubWay":"YES","CountyCode":"29189","Juris":"UNIVERSITY CITY","GPS_Lon":-90.320456,"GPS_Lat":38.657566,"CountyName":"St. Louis County"}},{"type":"Feature","id":115,"geometry":{"type":"Point","coordinates":[-90.325294,38.6580240000001]},"properties":{"OBJECTID":115,"SignID":269,"StopID":2041,"StopAbbr":"DEPUWB","StopName":"DELMAR @ PURDUE WB","OnSt":"DELMAR BLVD","AtSt":"PURDUE AVE","Lines":"97","Routes":"3097","StopPos":"FS","PrefTrans":"NO","Bench":"NO","Shelter":"NO","Transfer":"NO","ADA":"YES","PubWay":"YES","CountyCode":"29189","Juris":"UNIVERSITY CITY","GPS_Lon":-90.325294,"GPS_Lat":38.658024,"CountyName":"St. Louis County"}},{"type":"Feature","id":116,"geometry":{"type":"Point","coordinates":[-90.328286,38.6583180000001]},"properties":{"OBJECTID":116,"SignID":269,"StopID":2042,"StopAbbr":"DEJAWB","StopName":"DELMAR @ JACKSON WB","OnSt":"DELMAR BLVD","AtSt":"JACKSON AVE","Lines":"97","Routes":"3097","StopPos":"NS","PrefTrans":"NO","Bench":"NO","Shelter":"NO","Transfer":"NO","ADA":"YES","PubWay":"YES","CountyCode":"29189","Juris":"UNIVERSITY CITY","GPS_Lon":-90.328286,"GPS_Lat":38.658318,"CountyName":"St. Louis County"}},{"type":"Feature","id":117,"geometry":{"type":"Point","coordinates":[-90.33354,38.659023]},"properties":{"OBJECTID":117,"SignID":269,"StopID":2043,"StopAbbr":"DEHAWB","StopName":"DELMAR @ HANLEY WB","OnSt":"DELMAR BLVD","AtSt":"N HANLEY RD","Lines":"33","Routes":"3033","StopPos":"FS","PrefTrans":"NO","Bench":"NO","Shelter":"NO","Transfer":"YES","ADA":"NO","PubWay":"YES","CountyCode":"29189","Juris":"UNIVERSITY CITY","GPS_Lon":-90.33354,"GPS_Lat":38.659023,"CountyName":"St. Louis County"}},{"type":"Feature","id":118,"geometry":{"type":"Point","coordinates":[-90.3382,38.659479]},"properties":{"OBJECTID":118,"SignID":269,"StopID":2045,"StopAbbr":"DENOWB","StopName":"DELMAR @ NORTH AND SOUTH WB","OnSt":"DELMAR BLVD","AtSt":"NORTH AND SOUTH RD","Lines":"33","Routes":"3033","StopPos":"FS","PrefTrans":"NO","Bench":"NO","Shelter":"NO","Transfer":"YES","ADA":"NO","PubWay":"YES","CountyCode":"29189","Juris":"UNIVERSITY CITY","GPS_Lon":-90.3382,"GPS_Lat":38.659479,"CountyName":"St. Louis County"}},{"type":"Feature","id":119,"geometry":{"type":"Point","coordinates":[-90.3442179999999,38.660037]},"properties":{"OBJECTID":119,"SignID":269,"StopID":2048,"StopAbbr":"DECEWB","StopName":"DELMAR @ CENTER WB","OnSt":"DELMAR BLVD","AtSt":"N CENTER DR","Lines":"33","Routes":"3033","StopPos":"NS","PrefTrans":"NO","Bench":"NO","Shelter":"NO","Transfer":"NO","ADA":"YES","PubWay":"YES","CountyCode":"29189","Juris":"UNIVERSITY CITY","GPS_Lon":-90.344218,"GPS_Lat":38.660037,"CountyName":"St. Louis County"}},{"type":"Feature","id":120,"geometry":{"type":"Point","coordinates":[-90.349656,38.660578]},"properties":{"OBJECTID":120,"SignID":269,"StopID":2049,"StopAbbr":"DEOLWB","StopName":"DELMAR @ OLD BONHOMME WB","OnSt":"DELMAR BLVD","AtSt":"OLD BONHOMME RD","Lines":"33","Routes":"3033","StopPos":"FS","PrefTrans":"NO","Bench":"NO","Shelter":"NO","Transfer":"NO","ADA":"NO","PubWay":"YES","CountyCode":"29189","Juris":"UNIVERSITY CITY","GPS_Lon":-90.349656,"GPS_Lat":38.660578,"CountyName":"St. Louis County"}},{"type":"Feature","id":121,"geometry":{"type":"Point","coordinates":[-90.355417,38.66089]},"properties":{"OBJECTID":121,"SignID":269,"StopID":2051,"StopAbbr":"DEBRWB","StopName":"DELMAR @ BERICK WB","OnSt":"DELMAR BLVD","AtSt":"BERICK DR","Lines":"33","Routes":"3033","StopPos":"NS","PrefTrans":"NO","Bench":"NO","Shelter":"NO","Transfer":"NO","ADA":"NO","PubWay":"YES","CountyCode":"29189","Juris":"UNIVERSITY CITY","GPS_Lon":-90.355417,"GPS_Lat":38.66089,"CountyName":"St. Louis County"}},{"type":"Feature","id":122,"geometry":{"type":"Point","coordinates":[-90.357131,38.66213]},"properties":{"OBJECTID":122,"SignID":269,"StopID":2053,"StopAbbr":"MCGNNB","StopName":"MCKNIGHT @ GANNON NB","OnSt":"N MCKNIGHT RD","AtSt":"GANNON AVE","Lines":"33","Routes":"3033","StopPos":"NS","PrefTrans":"NO","Bench":"NO","Shelter":"NO","Transfer":"NO","ADA":"YES","PubWay":"YES","CountyCode":"29189","Juris":"UNIVERSITY CITY","GPS_Lon":-90.357131,"GPS_Lat":38.66213,"CountyName":"St. Louis County"}},{"type":"Feature","id":123,"geometry":{"type":"Point","coordinates":[-90.3572119999999,38.6619840000001]},"properties":{"OBJECTID":123,"SignID":269,"StopID":2054,"StopAbbr":"MCGASB","StopName":"MCKNIGHT @ GANNON SB","OnSt":"N MCKNIGHT RD","AtSt":"GANNON AVE","Lines":"33","Routes":"3033","StopPos":"FS","PrefTrans":"NO","Bench":"NO","Shelter":"NO","Transfer":"NO","ADA":"NO","PubWay":"YES","CountyCode":"29189","Juris":"UNIVERSITY CITY","GPS_Lon":-90.357212,"GPS_Lat":38.661984,"CountyName":"St. Louis County"}},{"type":"Feature","id":124,"geometry":{"type":"Point","coordinates":[-90.3571229999999,38.6632120000001]},"properties":{"OBJECTID":124,"SignID":269,"StopID":2055,"StopAbbr":"MCLONB","StopName":"MCKNIGHT @ STANFORD NB","OnSt":"N MCKNIGHT RD","AtSt":"STANFORD AVE","Lines":"33","Routes":"3033","StopPos":"NS","PrefTrans":"NO","Bench":"NO","Shelter":"NO","Transfer":"NO","ADA":"NO","PubWay":"YES","CountyCode":"29189","Juris":"UNIVERSITY CITY","GPS_Lon":-90.357123,"GPS_Lat":38.663212,"CountyName":"St. Louis County"}},{"type":"Feature","id":125,"geometry":{"type":"Point","coordinates":[-90.357072,38.666607]},"properties":{"OBJECTID":125,"SignID":269,"StopID":2056,"StopAbbr":"MCBENB","StopName":"MCKNIGHT @ BERICK NB","OnSt":"N MCKNIGHT RD","AtSt":"BERICK DR","Lines":"33","Routes":"3033","StopPos":"NS","PrefTrans":"NO","Bench":"NO","Shelter":"NO","Transfer":"NO","ADA":"NO","PubWay":"NO","CountyCode":"29189","Juris":"UNIVERSITY CITY","GPS_Lon":-90.357072,"GPS_Lat":38.666607,"CountyName":"St. Louis County"}},{"type":"Feature","id":126,"geometry":{"type":"Point","coordinates":[-90.3572069999999,38.6668320000001]},"properties":{"OBJECTID":126,"SignID":269,"StopID":2070,"StopAbbr":"MCBRSB","StopName":"MCKNIGHT @ BROOKSHIRE SB","OnSt":"N MCKNIGHT RD","AtSt":"BROOKSHIRE LN","Lines":"33","Routes":"3033","StopPos":"FS","PrefTrans":"NO","Bench":"NO","Shelter":"NO","Transfer":"NO","ADA":"NO","PubWay":"YES","CountyCode":"29189","Juris":"UNIVERSITY CITY","GPS_Lon":-90.357207,"GPS_Lat":38.666832,"CountyName":"St. Louis County"}},{"type":"Feature","id":127,"geometry":{"type":"Point","coordinates":[-90.351848,38.6606550000001]},"properties":{"OBJECTID":127,"SignID":269,"StopID":2071,"StopAbbr":"DE83EB","StopName":"8390 DELMAR EB","OnSt":"DELMAR BLVD","AtSt":"8390 DELMAR","Lines":"33","Routes":"3033","StopPos":"MB","PrefTrans":"NO","Bench":"NO","Shelter":"NO","Transfer":"NO","ADA":"NO","PubWay":"YES","CountyCode":"29189","Juris":"UNIVERSITY CITY","GPS_Lon":-90.351848,"GPS_Lat":38.660655,"CountyName":"St. Louis County"}},{"type":"Feature","id":128,"geometry":{"type":"Point","coordinates":[-90.350284,38.6604990000001]},"properties":{"OBJECTID":128,"SignID":269,"StopID":2072,"StopAbbr":"DEDEEB","StopName":"DELMAR @ DELCREST EB","OnSt":"DELMAR BLVD","AtSt":"DELCREST DR","Lines":"33","Routes":"3033","StopPos":"FS","PrefTrans":"NO","Bench":"NO","Shelter":"NO","Transfer":"NO","ADA":"NO","PubWay":"YES","CountyCode":"29189","Juris":"UNIVERSITY CITY","GPS_Lon":-90.350284,"GPS_Lat":38.660499,"CountyName":"St. Louis County"}},{"type":"Feature","id":129,"geometry":{"type":"Point","coordinates":[-90.348081,38.660286]},"properties":{"OBJECTID":129,"SignID":269,"StopID":2073,"StopAbbr":"DEOLEB","StopName":"DELMAR @ OLD BONHOMME EB","OnSt":"DELMAR BLVD","AtSt":"OLD BONHOMME RD","Lines":"33","Routes":"3033","StopPos":"FS","PrefTrans":"NO","Bench":"YES","Shelter":"NO","Transfer":"NO","ADA":"YES","PubWay":"YES","CountyCode":"29189","Juris":"UNIVERSITY CITY","GPS_Lon":-90.348081,"GPS_Lat":38.660286,"CountyName":"St. Louis County"}},{"type":"Feature","id":130,"geometry":{"type":"Point","coordinates":[-90.344197,38.6599160000001]},"properties":{"OBJECTID":130,"SignID":269,"StopID":2074,"StopAbbr":"DECEEB","StopName":"DELMAR @ CENTER EB","OnSt":"DELMAR BLVD","AtSt":"CENTER DR","Lines":"33","Routes":"3033","StopPos":"FS","PrefTrans":"NO","Bench":"NO","Shelter":"NO","Transfer":"NO","ADA":"YES","PubWay":"YES","CountyCode":"29189","Juris":"UNIVERSITY CITY","GPS_Lon":-90.344197,"GPS_Lat":38.659916,"CountyName":"St. Louis County"}},{"type":"Feature","id":131,"geometry":{"type":"Point","coordinates":[-90.337862,38.6592880000001]},"properties":{"OBJECTID":131,"SignID":269,"StopID":2077,"StopAbbr":"DENOEB","StopName":"DELMAR @ NORTH AND SOUTH EB","OnSt":"DELMAR BLVD","AtSt":"NORTH AND SOUTH RD","Lines":"33","Routes":"3033","StopPos":"NS","PrefTrans":"NO","Bench":"NO","Shelter":"NO","Transfer":"YES","ADA":"YES","PubWay":"YES","CountyCode":"29189","Juris":"UNIVERSITY CITY","GPS_Lon":-90.337862,"GPS_Lat":38.659288,"CountyName":"St. Louis County"}},{"type":"Feature","id":132,"geometry":{"type":"Point","coordinates":[-90.3293869999999,38.6583170000001]},"properties":{"OBJECTID":132,"SignID":269,"StopID":2080,"StopAbbr":"DEJAEB","StopName":"DELMAR @ JACKSON EB","OnSt":"DELMAR BLVD","AtSt":"JACKSON AVE","Lines":"97","Routes":"3097","StopPos":"NS","PrefTrans":"NO","Bench":"NO","Shelter":"NO","Transfer":"NO","ADA":"NO","PubWay":"YES","CountyCode":"29189","Juris":"UNIVERSITY CITY","GPS_Lon":-90.329387,"GPS_Lat":38.658317,"CountyName":"St. Louis County"}},{"type":"Feature","id":133,"geometry":{"type":"Point","coordinates":[-90.325324,38.6579120000001]},"properties":{"OBJECTID":133,"SignID":269,"StopID":2081,"StopAbbr":"DEPUEB","StopName":"DELMAR @ PURDUE EB","OnSt":"DELMAR BLVD","AtSt":"PURDUE AVE","Lines":"97","Routes":"3097","StopPos":"NS","PrefTrans":"NO","Bench":"NO","Shelter":"NO","Transfer":"NO","ADA":"NO","PubWay":"YES","CountyCode":"29189","Juris":"UNIVERSITY CITY","GPS_Lon":-90.325324,"GPS_Lat":38.657912,"CountyName":"St. Louis County"}},{"type":"Feature","id":134,"geometry":{"type":"Point","coordinates":[-90.3204489999999,38.657431]},"properties":{"OBJECTID":134,"SignID":269,"StopID":2082,"StopAbbr":"DEMIEB","StopName":"DELMAR @ MIDLAND EB","OnSt":"DELMAR BLVD","AtSt":"MIDLAND BLVD","Lines":"97","Routes":"3097","StopPos":"FS","PrefTrans":"NO","Bench":"NO","Shelter":"NO","Transfer":"NO","ADA":"YES","PubWay":"YES","CountyCode":"29189","Juris":"UNIVERSITY CITY","GPS_Lon":-90.320449,"GPS_Lat":38.657431,"CountyName":"St. Louis County"}},{"type":"Feature","id":135,"geometry":{"type":"Point","coordinates":[-90.316489,38.657048]},"properties":{"OBJECTID":135,"SignID":269,"StopID":2083,"StopAbbr":"DEVSEB","StopName":"DELMAR @ VASSAR EB","OnSt":"DELMAR BLVD","AtSt":"VASSAR AVE","Lines":"97","Routes":"3097","StopPos":"NS","PrefTrans":"NO","Bench":"NO","Shelter":"NO","Transfer":"NO","ADA":"NO","PubWay":"YES","CountyCode":"29189","Juris":"UNIVERSITY CITY","GPS_Lon":-90.316489,"GPS_Lat":38.657048,"CountyName":"St. Louis County"}},{"type":"Feature","id":136,"geometry":{"type":"Point","coordinates":[-90.315185,38.650111]},"properties":{"OBJECTID":136,"SignID":269,"StopID":2085,"StopAbbr":"BBSWNB","StopName":"BIG BEND @ SNOW WAY NB","OnSt":"N BIG BEND BLVD","AtSt":"SNOW WAY","Lines":"5","Routes":"3005","StopPos":"NS","PrefTrans":"NO","Bench":"NO","Shelter":"NO","Transfer":"NO","ADA":"NO","PubWay":"YES","CountyCode":"29189","Juris":"UNIVERSITY CITY","GPS_Lon":-90.315185,"GPS_Lat":38.650111,"CountyName":"St. Louis County"}},{"type":"Feature","id":137,"geometry":{"type":"Point","coordinates":[-90.31492,38.651217]},"properties":{"OBJECTID":137,"SignID":269,"StopID":2087,"StopAbbr":"BIFPNB","StopName":"BIG BEND METROLINK @ FOREST PARK PARKWAY NB","OnSt":"N BIG BEND BLVD","AtSt":"FOREST PARK PKWY","Lines":"5","Routes":"3005","StopPos":"NS","PrefTrans":"NO","Bench":"NO","Shelter":"NO","Transfer":"NO","ADA":"YES","PubWay":"YES","CountyCode":"29189","Juris":"UNIVERSITY CITY","GPS_Lon":-90.31492,"GPS_Lat":38.651217,"CountyName":"St. Louis County"}},{"type":"Feature","id":138,"geometry":{"type":"Point","coordinates":[-90.313485,38.656734]},"properties":{"OBJECTID":138,"SignID":269,"StopID":2090,"StopAbbr":"DEBIEB","StopName":"DELMAR @ BIG BEND EB","OnSt":"DELMAR BLVD","AtSt":"N BIG BEND BLVD","Lines":"5, 97","Routes":"3005, 3097","StopPos":"FS","PrefTrans":"NO","Bench":"NO","Shelter":"NO","Transfer":"YES","ADA":"NO","PubWay":"YES","CountyCode":"29189","Juris":"UNIVERSITY CITY","GPS_Lon":-90.313485,"GPS_Lat":38.656734,"CountyName":"St. Louis County"}},{"type":"Feature","id":139,"geometry":{"type":"Point","coordinates":[-90.309785,38.6563610000001]},"properties":{"OBJECTID":139,"SignID":269,"StopID":2092,"StopAbbr":"DLMKEB","StopName":"DELMAR @ SGT MIKE KING EB","OnSt":"DELMAR BLVD","AtSt":"HARVARD AVE","Lines":"97","Routes":"3097","StopPos":"FS","PrefTrans":"NO","Bench":"NO","Shelter":"NO","Transfer":"NO","ADA":"YES","PubWay":"YES","CountyCode":"29189","Juris":"UNIVERSITY CITY","GPS_Lon":-90.309785,"GPS_Lat":38.656361,"CountyName":"St. Louis County"}},{"type":"Feature","id":140,"geometry":{"type":"Point","coordinates":[-90.306168,38.656104]},"properties":{"OBJECTID":140,"SignID":269,"StopID":2093,"StopAbbr":"DELEEB","StopName":"DELMAR @ LELAND EB","OnSt":"DELMAR BLVD","AtSt":"LELAND AVE","Lines":"97","Routes":"3097","StopPos":"NS","PrefTrans":"NO","Bench":"NO","Shelter":"NO","Transfer":"NO","ADA":"YES","PubWay":"YES","CountyCode":"29189","Juris":"UNIVERSITY CITY","GPS_Lon":-90.306168,"GPS_Lat":38.656104,"CountyName":"St. Louis County"}},{"type":"Feature","id":141,"geometry":{"type":"Point","coordinates":[-90.302103,38.6556180000001]},"properties":{"OBJECTID":141,"SignID":269,"StopID":2095,"StopAbbr":"DELIEB","StopName":"DELMAR @ LIMIT EB","OnSt":"DELMAR BLVD","AtSt":"LIMIT AVE","Lines":"97","Routes":"3097","StopPos":"NS","PrefTrans":"NO","Bench":"NO","Shelter":"NO","Transfer":"YES","ADA":"YES","PubWay":"YES","CountyCode":"29189","Juris":"ST LOUIS","GPS_Lon":-90.302103,"GPS_Lat":38.655618,"CountyName":"St. Louis County"}},{"type":"Feature","id":142,"geometry":{"type":"Point","coordinates":[-90.297789,38.655272]},"properties":{"OBJECTID":142,"SignID":269,"StopID":2096,"StopAbbr":"DE61EB","StopName":"DELMAR @ 6144 DELMAR EB","OnSt":"DELMAR BLVD","AtSt":"6144 DELMAR BLVD","Lines":"2, 16, 97","Routes":"3002, 3016, 3097","StopPos":"MB","PrefTrans":"NO","Bench":"NO","Shelter":"NO","Transfer":"NO","ADA":"YES","PubWay":"YES","CountyCode":"29510","Juris":"ST LOUIS","GPS_Lon":-90.297789,"GPS_Lat":38.655272,"CountyName":"St. Louis"}},{"type":"Feature","id":143,"geometry":{"type":"Point","coordinates":[-90.295273,38.6556160000001]},"properties":{"OBJECTID":143,"SignID":269,"StopID":2097,"StopAbbr":"DPDLEB","StopName":"DELMAR LOOP TRANSIT CENTER EB","OnSt":"DES PERES AVE","AtSt":"DELMAR LOOP STATION","Lines":"2, 16, 91, 97","Routes":"3002, 3016, 3091, 3097","StopPos":"MB","PrefTrans":"YES","Bench":"YES","Shelter":"YES","Transfer":"YES","ADA":"YES","PubWay":"YES","CountyCode":"29510","Juris":"ST LOUIS CITY","GPS_Lon":-90.295273,"GPS_Lat":38.655616,"CountyName":"St. Louis"}},{"type":"Feature","id":144,"geometry":{"type":"Point","coordinates":[-90.293287,38.654813]},"properties":{"OBJECTID":144,"SignID":269,"StopID":2098,"StopAbbr":"DEDGEB","StopName":"DELMAR @ DEGIVERVILLE EB","OnSt":"DELMAR BLVD","AtSt":"DE GIVERVILLE AVE","Lines":"97","Routes":"3097","StopPos":"NS","PrefTrans":"NO","Bench":"NO","Shelter":"NO","Transfer":"NO","ADA":"YES","PubWay":"YES","CountyCode":"29510","Juris":"ST LOUIS","GPS_Lon":-90.293287,"GPS_Lat":38.654813,"CountyName":"St. Louis"}},{"type":"Feature","id":145,"geometry":{"type":"Point","coordinates":[-90.2909339999999,38.654482]},"properties":{"OBJECTID":145,"SignID":269,"StopID":2099,"StopAbbr":"DEHAEB","StopName":"DELMAR @ HAMILTON EB","OnSt":"DELMAR BLVD.","AtSt":"HAMILTON BLVD.","Lines":"97","Routes":"3097","StopPos":"NS","PrefTrans":"NO","Bench":"YES","Shelter":"NO","Transfer":"YES","ADA":"YES","PubWay":"YES","CountyCode":"29510","Juris":"ST LOUIS","GPS_Lon":-90.290934,"GPS_Lat":38.654482,"CountyName":"St. Louis"}},{"type":"Feature","id":146,"geometry":{"type":"Point","coordinates":[-90.288473,38.654252]},"properties":{"OBJECTID":146,"SignID":269,"StopID":2100,"StopAbbr":"DELLEB","StopName":"DELMAR @ LAUREL EB","OnSt":"DELMAR BLVD.","AtSt":"LAUREL AVE.","Lines":"97","Routes":"3097","StopPos":"FS","PrefTrans":"NO","Bench":"NO","Shelter":"NO","Transfer":"NO","ADA":"YES","PubWay":"YES","CountyCode":"29510","Juris":"ST LOUIS","GPS_Lon":-90.288473,"GPS_Lat":38.654252,"CountyName":"St. Louis"}},{"type":"Feature","id":147,"geometry":{"type":"Point","coordinates":[-90.2858209999999,38.653986]},"properties":{"OBJECTID":147,"SignID":269,"StopID":2101,"StopAbbr":"DEGOEB","StopName":"DELMAR @ GOODFELLOW EB","OnSt":"DELMAR BLVD","AtSt":"GOODFELLOW BLVD","Lines":"90, 97","Routes":"3090, 3097","StopPos":"FS","PrefTrans":"NO","Bench":"YES","Shelter":"YES","Transfer":"YES","ADA":"YES","PubWay":"YES","CountyCode":"29510","Juris":"ST LOUIS CITY","GPS_Lon":-90.285821,"GPS_Lat":38.653986,"CountyName":"St. Louis"}},{"type":"Feature","id":148,"geometry":{"type":"Point","coordinates":[-90.281763,38.6535880000001]},"properties":{"OBJECTID":148,"SignID":269,"StopID":2103,"StopAbbr":"DECLEB","StopName":"DELMAR @ CLARA EB","OnSt":"DELMAR BLVD","AtSt":"CLARA AVE","Lines":"97","Routes":"3097","StopPos":"FS","PrefTrans":"NO","Bench":"NO","Shelter":"NO","Transfer":"NO","ADA":"YES","PubWay":"YES","CountyCode":"29510","Juris":"ST LOUIS","GPS_Lon":-90.281763,"GPS_Lat":38.653588,"CountyName":"St. Louis"}},{"type":"Feature","id":149,"geometry":{"type":"Point","coordinates":[-90.2794739999999,38.6533830000001]},"properties":{"OBJECTID":149,"SignID":269,"StopID":2104,"StopAbbr":"DEBLEB","StopName":"DELMAR @ BELT EB","OnSt":"DELMAR BLVD","AtSt":"BELT AVE","Lines":"97","Routes":"3097","StopPos":"NS","PrefTrans":"NO","Bench":"NO","Shelter":"NO","Transfer":"NO","ADA":"NO","PubWay":"YES","CountyCode":"29510","Juris":"ST LOUIS","GPS_Lon":-90.279474,"GPS_Lat":38.653383,"CountyName":"St. Louis"}},{"type":"Feature","id":150,"geometry":{"type":"Point","coordinates":[-90.2750529999999,38.6529380000001]},"properties":{"OBJECTID":150,"SignID":269,"StopID":2105,"StopAbbr":"DE53EB","StopName":"5340 DELMAR EB","OnSt":"DELMAR BLVD.","AtSt":"5340 DELMAR BLVD.","Lines":"97","Routes":"3097","StopPos":"MB","PrefTrans":"NO","Bench":"NO","Shelter":"NO","Transfer":"NO","ADA":"NO","PubWay":"NO","CountyCode":"29510","Juris":"ST LOUIS","GPS_Lon":-90.275053,"GPS_Lat":38.652938,"CountyName":"St. Louis"}},{"type":"Feature","id":151,"geometry":{"type":"Point","coordinates":[-90.273062,38.6524840000001]},"properties":{"OBJECTID":151,"SignID":269,"StopID":2106,"StopAbbr":"DEUNEB","StopName":"DELMAR @ UNION EB","OnSt":"DELMAR BLVD.","AtSt":"UNION BLVD.","Lines":"97","Routes":"3097","StopPos":"FS","PrefTrans":"NO","Bench":"NO","Shelter":"NO","Transfer":"YES","ADA":"NO","PubWay":"NO","CountyCode":"29510","Juris":"ST LOUIS","GPS_Lon":-90.273062,"GPS_Lat":38.652484,"CountyName":"St. Louis"}},{"type":"Feature","id":152,"geometry":{"type":"Point","coordinates":[-90.2702879999999,38.652156]},"properties":{"OBJECTID":152,"SignID":269,"StopID":2107,"StopAbbr":"DELAEB","StopName":"DELMAR @ LAKE EB","OnSt":"DELMAR BLVD","AtSt":"LAKE AVE","Lines":"97","Routes":"3097","StopPos":"NS","PrefTrans":"NO","Bench":"NO","Shelter":"NO","Transfer":"NO","ADA":"NO","PubWay":"YES","CountyCode":"29510","Juris":"ST LOUIS","GPS_Lon":-90.270288,"GPS_Lat":38.652156,"CountyName":"St. Louis"}},{"type":"Feature","id":153,"geometry":{"type":"Point","coordinates":[-90.26703,38.651842]},"properties":{"OBJECTID":153,"SignID":269,"StopID":2108,"StopAbbr":"DEACEB","StopName":"DELMAR @ ACADEMY EB","OnSt":"DELMAR BLVD","AtSt":"ACADEMY AVE","Lines":"97","Routes":"3097","StopPos":"NS","PrefTrans":"NO","Bench":"NO","Shelter":"NO","Transfer":"NO","ADA":"NO","PubWay":"NO","CountyCode":"29510","Juris":"ST LOUIS","GPS_Lon":-90.26703,"GPS_Lat":38.651842,"CountyName":"St. Louis"}},{"type":"Feature","id":154,"geometry":{"type":"Point","coordinates":[-90.263924,38.651503]},"properties":{"OBJECTID":154,"SignID":269,"StopID":2109,"StopAbbr":"DLKHEB","StopName":"DELMAR @ KINGSHIGHWAY EB","OnSt":"DELMAR BLVD.","AtSt":"KINGSHIGHWAY BLVD.","Lines":"97","Routes":"3097","StopPos":"NS","PrefTrans":"NO","Bench":"YES","Shelter":"YES","Transfer":"YES","ADA":"YES","PubWay":"YES","CountyCode":"29510","Juris":"ST LOUIS CITY","GPS_Lon":-90.263924,"GPS_Lat":38.651503,"CountyName":"St. Louis"}},{"type":"Feature","id":155,"geometry":{"type":"Point","coordinates":[-90.260278,38.6512770000001]},"properties":{"OBJECTID":155,"SignID":269,"StopID":2110,"StopAbbr":"DEEUEB","StopName":"DELMAR @ EUCLID EB","OnSt":"DELMAR BLVD","AtSt":"N EUCLID AVE","Lines":"97","Routes":"3097","StopPos":"FS","PrefTrans":"NO","Bench":"YES","Shelter":"YES","Transfer":"NO","ADA":"YES","PubWay":"NO","CountyCode":"29510","Juris":"ST LOUIS","GPS_Lon":-90.260278,"GPS_Lat":38.651277,"CountyName":"St. Louis"}},{"type":"Feature","id":156,"geometry":{"type":"Point","coordinates":[-90.258144,38.6510710000001]},"properties":{"OBJECTID":156,"SignID":269,"StopID":2111,"StopAbbr":"DEWTEB","StopName":"DELMAR @ WALTON EB","OnSt":"DELMAR BLVD","AtSt":"WALTON AVE","Lines":"97","Routes":"3097","StopPos":"NS","PrefTrans":"NO","Bench":"NO","Shelter":"NO","Transfer":"NO","ADA":"YES","PubWay":"YES","CountyCode":"29510","Juris":"ST LOUIS","GPS_Lon":-90.258144,"GPS_Lat":38.651071,"CountyName":"St. Louis"}},{"type":"Feature","id":157,"geometry":{"type":"Point","coordinates":[-90.2537829999999,38.6503000000001]},"properties":{"OBJECTID":157,"SignID":269,"StopID":2112,"StopAbbr":"DETAEB","StopName":"DELMAR @ TAYLOR EB","OnSt":"DELMAR BLVD","AtSt":"N TAYLOR AVE","Lines":"97","Routes":"3097","StopPos":"NS","PrefTrans":"NO","Bench":"NO","Shelter":"NO","Transfer":"YES","ADA":"YES","PubWay":"NO","CountyCode":"29510","Juris":"ST LOUIS","GPS_Lon":-90.253783,"GPS_Lat":38.6503,"CountyName":"St. Louis"}},{"type":"Feature","id":158,"geometry":{"type":"Point","coordinates":[-90.250894,38.649074]},"properties":{"OBJECTID":158,"SignID":269,"StopID":2113,"StopAbbr":"DENEEB","StopName":"DELMAR @ NEWSTEAD EB","OnSt":"DELMAR BLVD","AtSt":"N NEWSTEAD AVE","Lines":"97","Routes":"3097","StopPos":"NS","PrefTrans":"NO","Bench":"NO","Shelter":"NO","Transfer":"NO","ADA":"YES","PubWay":"YES","CountyCode":"29510","Juris":"ST LOUIS","GPS_Lon":-90.250894,"GPS_Lat":38.649074,"CountyName":"St. Louis"}},{"type":"Feature","id":159,"geometry":{"type":"Point","coordinates":[-90.2477039999999,38.6476450000001]},"properties":{"OBJECTID":159,"SignID":269,"StopID":2114,"StopAbbr":"DEPEEB","StopName":"DELMAR @ PENDLETON EB","OnSt":"DELMAR BLVD","AtSt":"PENDLETON AVE","Lines":"97","Routes":"3097","StopPos":"FS","PrefTrans":"NO","Bench":"NO","Shelter":"NO","Transfer":"NO","ADA":"NO","PubWay":"NO","CountyCode":"29510","Juris":"ST LOUIS","GPS_Lon":-90.247704,"GPS_Lat":38.647645,"CountyName":"St. Louis"}},{"type":"Feature","id":160,"geometry":{"type":"Point","coordinates":[-90.245144,38.6465250000001]},"properties":{"OBJECTID":160,"SignID":269,"StopID":2115,"StopAbbr":"DEWHEB","StopName":"DELMAR @ WHITTIER EB","OnSt":"DELMAR BLVD","AtSt":"WHITTIER ST","Lines":"97","Routes":"3097","StopPos":"FS","PrefTrans":"NO","Bench":"NO","Shelter":"NO","Transfer":"NO","ADA":"NO","PubWay":"YES","CountyCode":"29510","Juris":"ST LOUIS","GPS_Lon":-90.245144,"GPS_Lat":38.646525,"CountyName":"St. Louis"}},{"type":"Feature","id":161,"geometry":{"type":"Point","coordinates":[-90.242754,38.645467]},"properties":{"OBJECTID":161,"SignID":269,"StopID":2116,"StopAbbr":"DESAEB","StopName":"DELMAR @ SARAH EB","OnSt":"DELMAR BLVD","AtSt":"N SARAH ST","Lines":"97","Routes":"3097","StopPos":"NS","PrefTrans":"NO","Bench":"NO","Shelter":"NO","Transfer":"YES","ADA":"NO","PubWay":"NO","CountyCode":"29510","Juris":"ST LOUIS","GPS_Lon":-90.242754,"GPS_Lat":38.645467,"CountyName":"St. Louis"}},{"type":"Feature","id":162,"geometry":{"type":"Point","coordinates":[-90.240473,38.6444660000001]},"properties":{"OBJECTID":162,"SignID":269,"StopID":2117,"StopAbbr":"DE40EB","StopName":"4010 DELMAR EB","OnSt":"DELMAR BLVD","AtSt":"4010 DELMAR BLVD","Lines":"97","Routes":"3097","StopPos":"MB","PrefTrans":"NO","Bench":"NO","Shelter":"NO","Transfer":"NO","ADA":"NO","PubWay":"YES","CountyCode":"29510","Juris":"ST LOUIS","GPS_Lon":-90.240473,"GPS_Lat":38.644466,"CountyName":"St. Louis"}},{"type":"Feature","id":163,"geometry":{"type":"Point","coordinates":[-90.238209,38.64349]},"properties":{"OBJECTID":163,"SignID":269,"StopID":2118,"StopAbbr":"DEVAEB","StopName":"DELMAR @ VANDEVENTER EB","OnSt":"DELMAR BLVD","AtSt":"N VANDEVENTER AVE","Lines":"97","Routes":"3097","StopPos":"NS","PrefTrans":"NO","Bench":"NO","Shelter":"NO","Transfer":"NO","ADA":"NO","PubWay":"YES","CountyCode":"29510","Juris":"ST LOUIS","GPS_Lon":-90.238209,"GPS_Lat":38.64349,"CountyName":"St. Louis"}},{"type":"Feature","id":164,"geometry":{"type":"Point","coordinates":[-90.223887,38.640405]},"properties":{"OBJECTID":164,"SignID":269,"StopID":2125,"StopAbbr":"COFRNB","StopName":"COMPTON @ FRANKLIN NB","OnSt":"N COMPTON AVE","AtSt":"FRANKLIN AVE","Lines":"94","Routes":"3094","StopPos":"FS","PrefTrans":"NO","Bench":"NO","Shelter":"NO","Transfer":"YES","ADA":"YES","PubWay":"YES","CountyCode":"29510","Juris":"ST LOUIS CITY","GPS_Lon":-90.223887,"GPS_Lat":38.640405,"CountyName":"St. Louis"}},{"type":"Feature","id":165,"geometry":{"type":"Point","coordinates":[-90.190828,38.6400840000001]},"properties":{"OBJECTID":165,"SignID":269,"StopID":2200,"StopAbbr":"10CSSB","StopName":"10TH STREET @ CASS SB","OnSt":"N 10TH ST","AtSt":"CASS AVE","Lines":"32, 40","Routes":"3032, 3040","StopPos":"FS","PrefTrans":"NO","Bench":"NO","Shelter":"NO","Transfer":"NO","ADA":"NO","PubWay":"YES","CountyCode":"29510","Juris":"ST LOUIS CITY","GPS_Lon":-90.190828,"GPS_Lat":38.640084,"CountyName":"St. Louis"}},{"type":"Feature","id":166,"geometry":{"type":"Point","coordinates":[-90.2306859999999,38.6849930000001]},"properties":{"OBJECTID":166,"SignID":269,"StopID":2269,"StopAbbr":"WF70SB","StopName":"WEST FLORISSANT @ I-70 EXIT 245B SB","OnSt":"W FLORISSANT AVE","AtSt":"I-70 RAMP","Lines":"74, 95","Routes":"3074, 3095","StopPos":"NS","PrefTrans":"NO","Bench":"YES","Shelter":"NO","Transfer":"NO","ADA":"YES","PubWay":"YES","CountyCode":"29510","Juris":"ST LOUIS","GPS_Lon":-90.230686,"GPS_Lat":38.684993,"CountyName":"St. Louis"}},{"type":"Feature","id":167,"geometry":{"type":"Point","coordinates":[-90.23216,38.686672]},"properties":{"OBJECTID":167,"SignID":269,"StopID":2270,"StopAbbr":"WFSHSB","StopName":"WEST FLORISSANT @ SHREVE SB","OnSt":"W FLORISSANT AVE","AtSt":"SHREVE AVE","Lines":"74, 95","Routes":"3074, 3095","StopPos":"FS","PrefTrans":"NO","Bench":"YES","Shelter":"NO","Transfer":"YES","ADA":"YES","PubWay":"YES","CountyCode":"29510","Juris":"ST LOUIS","GPS_Lon":-90.23216,"GPS_Lat":38.686672,"CountyName":"St. Louis"}},{"type":"Feature","id":168,"geometry":{"type":"Point","coordinates":[-90.234234,38.689064]},"properties":{"OBJECTID":168,"SignID":269,"StopID":2271,"StopAbbr":"WFEUSB","StopName":"WEST FLORISSANT @ EUCLID SB","OnSt":"W FLORISSANT AVE","AtSt":"N EUCLID AVE","Lines":"74, 95","Routes":"3074, 3095","StopPos":"FS","PrefTrans":"NO","Bench":"YES","Shelter":"NO","Transfer":"NO","ADA":"YES","PubWay":"YES","CountyCode":"29510","Juris":"ST LOUIS","GPS_Lon":-90.234234,"GPS_Lat":38.689064,"CountyName":"St. Louis"}},{"type":"Feature","id":169,"geometry":{"type":"Point","coordinates":[-90.2367149999999,38.691316]},"properties":{"OBJECTID":169,"SignID":269,"StopID":2272,"StopAbbr":"KIWFSB","StopName":"KINGSHIGHWAY @ WEST FLORISSANT SB","OnSt":"N KINGSHIGHWAY BLVD","AtSt":"W FLORISSANT AVE","Lines":"95","Routes":"3095","StopPos":"FS","PrefTrans":"NO","Bench":"YES","Shelter":"NO","Transfer":"YES","ADA":"YES","PubWay":"YES","CountyCode":"29510","Juris":"ST LOUIS","GPS_Lon":-90.236715,"GPS_Lat":38.691316,"CountyName":"St. Louis"}},{"type":"Feature","id":170,"geometry":{"type":"Point","coordinates":[-90.238778,38.690135]},"properties":{"OBJECTID":170,"SignID":269,"StopID":2273,"StopAbbr":"KIHASB","StopName":"KINGSHIGHWAY @ HARNEY SB","OnSt":"KINGSHIGHWAY BLVD ","AtSt":"HARNEY AVE.","Lines":"95","Routes":"3095","StopPos":"NS","PrefTrans":"NO","Bench":"NO","Shelter":"NO","Transfer":"NO","ADA":"NO","PubWay":"YES","CountyCode":"29510","Juris":"ST LOUIS","GPS_Lon":-90.238778,"GPS_Lat":38.690135,"CountyName":"St. Louis"}},{"type":"Feature","id":171,"geometry":{"type":"Point","coordinates":[-90.241863,38.688472]},"properties":{"OBJECTID":171,"SignID":269,"StopID":2274,"StopAbbr":"KITHSB","StopName":"KINGSHIGHWAY @ THEKLA SB","OnSt":"N KINGSHIGHWAY BLVD","AtSt":"THEKLA AVE","Lines":"95","Routes":"3095","StopPos":"FS","PrefTrans":"NO","Bench":"NO","Shelter":"NO","Transfer":"NO","ADA":"YES","PubWay":"YES","CountyCode":"29510","Juris":"ST LOUIS","GPS_Lon":-90.241863,"GPS_Lat":38.688472,"CountyName":"St. Louis"}},{"type":"Feature","id":172,"geometry":{"type":"Point","coordinates":[-90.244654,38.68695]},"properties":{"OBJECTID":172,"SignID":269,"StopID":2276,"StopAbbr":"KILLSB","StopName":"KINGSHIGHWAY @ LILLIAN SB","OnSt":"N KINGSHIGHWAY BLVD","AtSt":"LILLIAN AVE","Lines":"95","Routes":"3095","StopPos":"NS","PrefTrans":"NO","Bench":"YES","Shelter":"NO","Transfer":"YES","ADA":"YES","PubWay":"YES","CountyCode":"29510","Juris":"ST LOUIS","GPS_Lon":-90.244654,"GPS_Lat":38.68695,"CountyName":"St. Louis"}},{"type":"Feature","id":173,"geometry":{"type":"Point","coordinates":[-90.247194,38.6852640000001]},"properties":{"OBJECTID":173,"SignID":269,"StopID":2277,"StopAbbr":"KIBISB","StopName":"KINGSHIGHWAY @ BIRCHER SB","OnSt":"N KINGSHIGHWAY BLVD","AtSt":"BIRCHER BLVD","Lines":"41, 95","Routes":"3041, 3095","StopPos":"FS","PrefTrans":"NO","Bench":"NO","Shelter":"NO","Transfer":"NO","ADA":"NO","PubWay":"YES","CountyCode":"29510","Juris":"ST LOUIS","GPS_Lon":-90.247194,"GPS_Lat":38.685264,"CountyName":"St. Louis"}},{"type":"Feature","id":174,"geometry":{"type":"Point","coordinates":[-90.24778,38.683228]},"properties":{"OBJECTID":174,"SignID":269,"StopID":2280,"StopAbbr":"KIPNSB","StopName":"KINGSHIGHWAY @ PENROSE SB","OnSt":"N KINGSHIGHWAY BLVD","AtSt":"PENROSE ST","Lines":"41, 95","Routes":"3041, 3095","StopPos":"NS","PrefTrans":"NO","Bench":"NO","Shelter":"NO","Transfer":"NO","ADA":"YES","PubWay":"YES","CountyCode":"29510","Juris":"ST LOUIS","GPS_Lon":-90.24778,"GPS_Lat":38.683228,"CountyName":"St. Louis"}},{"type":"Feature","id":175,"geometry":{"type":"Point","coordinates":[-90.249141,38.680505]},"properties":{"OBJECTID":175,"SignID":269,"StopID":2281,"StopAbbr":"KHBRSB","StopName":"KINGSHIGHWAY @ BROWN SB","OnSt":"N KINGSHIGHWAY BLVD","AtSt":"BROWN AVE","Lines":"95","Routes":"3095","StopPos":"FS","PrefTrans":"NO","Bench":"NO","Shelter":"NO","Transfer":"YES","ADA":"YES","PubWay":"YES","CountyCode":"29510","Juris":"ST LOUIS","GPS_Lon":-90.249141,"GPS_Lat":38.680505,"CountyName":"St. Louis"}},{"type":"Feature","id":176,"geometry":{"type":"Point","coordinates":[-90.2506989999999,38.6782450000001]},"properties":{"OBJECTID":176,"SignID":269,"StopID":2282,"StopAbbr":"KIMASB","StopName":"KINGSHIGHWAY @ MARGERETTA SB","OnSt":"N KINGSHIGHWAY BLVD","AtSt":"MARGERETTA AVE","Lines":"95","Routes":"3095","StopPos":"MB","PrefTrans":"NO","Bench":"NO","Shelter":"NO","Transfer":"NO","ADA":"NO","PubWay":"YES","CountyCode":"29510","Juris":"ST LOUIS","GPS_Lon":-90.250699,"GPS_Lat":38.678245,"CountyName":"St. Louis"}},{"type":"Feature","id":177,"geometry":{"type":"Point","coordinates":[-90.251637,38.676925]},"properties":{"OBJECTID":177,"SignID":269,"StopID":2283,"StopAbbr":"KINBSB","StopName":"KINGSHIGHWAY @ NATURAL BRIDGE SB","OnSt":"N KINGSHIGHWAY BLVD","AtSt":"NATURAL BRIDGE AVE","Lines":"95","Routes":"3095","StopPos":"NS","PrefTrans":"NO","Bench":"NO","Shelter":"NO","Transfer":"YES","ADA":"YES","PubWay":"YES","CountyCode":"29510","Juris":"ST LOUIS","GPS_Lon":-90.251637,"GPS_Lat":38.676925,"CountyName":"St. Louis"}},{"type":"Feature","id":178,"geometry":{"type":"Point","coordinates":[-90.252198,38.676134]},"properties":{"OBJECTID":178,"SignID":269,"StopID":2284,"StopAbbr":"KHNASB","StopName":"KINGSHIGHWAY @ NATURAL BRIDGE SB","OnSt":"N KINGSHIGHWAY BLVD","AtSt":"NATURAL BRIDGE AVE","Lines":"95","Routes":"3095","StopPos":"FS","PrefTrans":"NO","Bench":"YES","Shelter":"YES","Transfer":"YES","ADA":"YES","PubWay":"YES","CountyCode":"29510","Juris":"ST LOUIS CITY","GPS_Lon":-90.252198,"GPS_Lat":38.676134,"CountyName":"St. Louis"}},{"type":"Feature","id":179,"geometry":{"type":"Point","coordinates":[-90.252918,38.675107]},"properties":{"OBJECTID":179,"SignID":269,"StopID":2285,"StopAbbr":"KHLESB","StopName":"KINGSHIGHWAY @ LEXINGTON SB","OnSt":"N KINGSHIGHWAY BLVD","AtSt":"LEXINGTON AVE","Lines":"95","Routes":"3095","StopPos":"NS","PrefTrans":"NO","Bench":"NO","Shelter":"NO","Transfer":"NO","ADA":"NO","PubWay":"YES","CountyCode":"29510","Juris":"ST LOUIS","GPS_Lon":-90.252918,"GPS_Lat":38.675107,"CountyName":"St. Louis"}},{"type":"Feature","id":180,"geometry":{"type":"Point","coordinates":[-90.25566,38.6711470000001]},"properties":{"OBJECTID":180,"SignID":269,"StopID":2287,"StopAbbr":"KHSTSB","StopName":"KINGSHIGHWAY @ ST. LOUIS SB","OnSt":"N KINGSHIGHWAY BLVD","AtSt":"ST LOUIS AVE","Lines":"95","Routes":"3095","StopPos":"FS","PrefTrans":"NO","Bench":"NO","Shelter":"NO","Transfer":"YES","ADA":"NO","PubWay":"YES","CountyCode":"29510","Juris":"ST LOUIS","GPS_Lon":-90.25566,"GPS_Lat":38.671147,"CountyName":"St. Louis"}},{"type":"Feature","id":181,"geometry":{"type":"Point","coordinates":[-90.256594,38.669919]},"properties":{"OBJECTID":181,"SignID":269,"StopID":2288,"StopAbbr":"KIMFSB","StopName":"KINGSHIGHWAY @ MAFFITT SB","OnSt":"N KINGSHIGHWAY BLVD","AtSt":"MAFFITT AVE","Lines":"95","Routes":"3095","StopPos":"NS","PrefTrans":"NO","Bench":"NO","Shelter":"NO","Transfer":"NO","ADA":"YES","PubWay":"YES","CountyCode":"29510","Juris":"ST LOUIS","GPS_Lon":-90.256594,"GPS_Lat":38.669919,"CountyName":"St. Louis"}},{"type":"Feature","id":182,"geometry":{"type":"Point","coordinates":[-90.257846,38.6683150000001]},"properties":{"OBJECTID":182,"SignID":269,"StopID":2290,"StopAbbr":"KIHISB","StopName":"KINGSHIGHWAY @ HIGHLAND SB","OnSt":"N KINGSHIGHWAY BLVD","AtSt":"HIGHLAND AVE","Lines":"95","Routes":"3095","StopPos":"NS","PrefTrans":"NO","Bench":"YES","Shelter":"NO","Transfer":"NO","ADA":"YES","PubWay":"YES","CountyCode":"29510","Juris":"ST LOUIS","GPS_Lon":-90.257846,"GPS_Lat":38.668315,"CountyName":"St. Louis"}},{"type":"Feature","id":183,"geometry":{"type":"Point","coordinates":[-90.2591889999999,38.6665600000001]},"properties":{"OBJECTID":183,"SignID":269,"StopID":2292,"StopAbbr":"KILTSB","StopName":"KINGSHIGHWAY @ LOTUS SB","OnSt":"N KINGSHIGHWAY BLVD","AtSt":"LOTUS AVE","Lines":"95","Routes":"3095","StopPos":"NS","PrefTrans":"NO","Bench":"NO","Shelter":"NO","Transfer":"NO","ADA":"NO","PubWay":"YES","CountyCode":"29510","Juris":"ST LOUIS","GPS_Lon":-90.259189,"GPS_Lat":38.66656,"CountyName":"St. Louis"}},{"type":"Feature","id":184,"geometry":{"type":"Point","coordinates":[-90.261474,38.6633590000001]},"properties":{"OBJECTID":184,"SignID":269,"StopID":2294,"StopAbbr":"KIALSB","StopName":"KINGSHIGHWAY @ DR ML KING SB","OnSt":"N KINGSHIGHWAY BLVD","AtSt":"DR ML KING DR","Lines":"95","Routes":"3095","StopPos":"NS","PrefTrans":"NO","Bench":"NO","Shelter":"NO","Transfer":"YES","ADA":"YES","PubWay":"YES","CountyCode":"29510","Juris":"ST LOUIS","GPS_Lon":-90.261474,"GPS_Lat":38.663359,"CountyName":"St. Louis"}},{"type":"Feature","id":185,"geometry":{"type":"Point","coordinates":[-90.261717,38.6628640000001]},"properties":{"OBJECTID":185,"SignID":269,"StopID":2295,"StopAbbr":"KIDRSB","StopName":"KINGSHIGHWAY @ DR ML KING SB","OnSt":"N KINGSHIGHWAY BLVD","AtSt":"DR MARTIN LUTHER KING DR","Lines":"95","Routes":"3095","StopPos":"FS","PrefTrans":"NO","Bench":"YES","Shelter":"NO","Transfer":"YES","ADA":"YES","PubWay":"YES","CountyCode":"29510","Juris":"ST LOUIS","GPS_Lon":-90.261717,"GPS_Lat":38.662864,"CountyName":"St. Louis"}},{"type":"Feature","id":186,"geometry":{"type":"Point","coordinates":[-90.2621579999999,38.6603050000001]},"properties":{"OBJECTID":186,"SignID":269,"StopID":2296,"StopAbbr":"KHPASB","StopName":"KINGSHIGHWAY @ PAGE SB","OnSt":"N KINGSHIGHWAY BLVD","AtSt":"PAGE BLVD","Lines":"95","Routes":"3095","StopPos":"NS","PrefTrans":"NO","Bench":"YES","Shelter":"NO","Transfer":"YES","ADA":"YES","PubWay":"YES","CountyCode":"29510","Juris":"ST LOUIS","GPS_Lon":-90.262158,"GPS_Lat":38.660305,"CountyName":"St. Louis"}},{"type":"Feature","id":187,"geometry":{"type":"Point","coordinates":[-90.2624749999999,38.658242]},"properties":{"OBJECTID":187,"SignID":269,"StopID":2297,"StopAbbr":"KIVESB","StopName":"KINGSHIGHWAY @ VERNON SB","OnSt":"N KINGSHIGHWAY BLVD","AtSt":"VERNON AVE","Lines":"95","Routes":"3095","StopPos":"NS","PrefTrans":"NO","Bench":"YES","Shelter":"NO","Transfer":"NO","ADA":"YES","PubWay":"YES","CountyCode":"29510","Juris":"ST LOUIS","GPS_Lon":-90.262475,"GPS_Lat":38.658242,"CountyName":"St. Louis"}},{"type":"Feature","id":188,"geometry":{"type":"Point","coordinates":[-90.262798,38.656305]},"properties":{"OBJECTID":188,"SignID":269,"StopID":2299,"StopAbbr":"KHCASB","StopName":"KINGSHIGHWAY @ CABANNE SB","OnSt":"N KINGSHIGHWAY BLVD","AtSt":"CABANNE AVE","Lines":"95","Routes":"3095","StopPos":"NS","PrefTrans":"NO","Bench":"NO","Shelter":"NO","Transfer":"NO","ADA":"NO","PubWay":"NO","CountyCode":"29510","Juris":"ST LOUIS","GPS_Lon":-90.262798,"GPS_Lat":38.656305,"CountyName":"St. Louis"}},{"type":"Feature","id":189,"geometry":{"type":"Point","coordinates":[-90.263162,38.654273]},"properties":{"OBJECTID":189,"SignID":269,"StopID":2300,"StopAbbr":"KIHMSB","StopName":"KINGSHIGHWAY @ HODIAMONT RIGHT OF WAY SB","OnSt":"N KINGSHIGHWAY BLVD","AtSt":"SUBURBAN TRAK","Lines":"95","Routes":"3095","StopPos":"FS","PrefTrans":"NO","Bench":"NO","Shelter":"NO","Transfer":"NO","ADA":"YES","PubWay":"YES","CountyCode":"29510","Juris":"ST LOUIS","GPS_Lon":-90.263162,"GPS_Lat":38.654273,"CountyName":"St. Louis"}},{"type":"Feature","id":190,"geometry":{"type":"Point","coordinates":[-90.26367,38.6513620000001]},"properties":{"OBJECTID":190,"SignID":269,"StopID":2302,"StopAbbr":"KHDESB","StopName":"KINGSHIGHWAY @ DELMAR SB","OnSt":"N KINGSHIGHWAY BLVD","AtSt":"DELMAR BLVD","Lines":"95","Routes":"3095","StopPos":"FS","PrefTrans":"NO","Bench":"NO","Shelter":"NO","Transfer":"YES","ADA":"YES","PubWay":"YES","CountyCode":"29510","Juris":"ST LOUIS CITY","GPS_Lon":-90.26367,"GPS_Lat":38.651362,"CountyName":"St. Louis"}},{"type":"Feature","id":191,"geometry":{"type":"Point","coordinates":[-90.26386,38.649997]},"properties":{"OBJECTID":191,"SignID":269,"StopID":2303,"StopAbbr":"KIMPSB","StopName":"KINGSHIGHWAY @ MCPHERSON SB","OnSt":"N KINGSHIGHWAY BLVD","AtSt":"MCPHERSON AVE","Lines":"95","Routes":"3095","StopPos":"NS","PrefTrans":"NO","Bench":"NO","Shelter":"NO","Transfer":"NO","ADA":"YES","PubWay":"YES","CountyCode":"29510","Juris":"ST LOUIS","GPS_Lon":-90.26386,"GPS_Lat":38.649997,"CountyName":"St. Louis"}},{"type":"Feature","id":192,"geometry":{"type":"Point","coordinates":[-90.264127,38.648421]},"properties":{"OBJECTID":192,"SignID":269,"StopID":2304,"StopAbbr":"KIWMSB","StopName":"KINGSHIGHWAY @ WATERMAN SB","OnSt":"N KINGSHIGHWAY BLVD","AtSt":"WATERMAN BLVD","Lines":"95","Routes":"3095","StopPos":"NS","PrefTrans":"NO","Bench":"NO","Shelter":"NO","Transfer":"YES","ADA":"YES","PubWay":"YES","CountyCode":"29510","Juris":"ST LOUIS","GPS_Lon":-90.264127,"GPS_Lat":38.648421,"CountyName":"St. Louis"}},{"type":"Feature","id":193,"geometry":{"type":"Point","coordinates":[-90.264625,38.6455320000001]},"properties":{"OBJECTID":193,"SignID":269,"StopID":2305,"StopAbbr":"KHMASB","StopName":"KINGSHIGHWAY @ MARYLAND SB","OnSt":"N KINGSHIGHWAY BLVD","AtSt":"MARYLAND PLZ","Lines":"1, 95","Routes":"3001, 3095","StopPos":"NS","PrefTrans":"NO","Bench":"NO","Shelter":"NO","Transfer":"NO","ADA":"YES","PubWay":"YES","CountyCode":"29510","Juris":"ST LOUIS","GPS_Lon":-90.264625,"GPS_Lat":38.645532,"CountyName":"St. Louis"}},{"type":"Feature","id":194,"geometry":{"type":"Point","coordinates":[-90.264843,38.6443110000001]},"properties":{"OBJECTID":194,"SignID":269,"StopID":2306,"StopAbbr":"KILISB","StopName":"KINGSHIGHWAY @ LINDELL SB","OnSt":"N KINGSHIGHWAY BLVD","AtSt":"LINDELL BLVD","Lines":"1, 95","Routes":"3001, 3095","StopPos":"NS","PrefTrans":"NO","Bench":"YES","Shelter":"NO","Transfer":"YES","ADA":"YES","PubWay":"YES","CountyCode":"29510","Juris":"ST LOUIS","GPS_Lon":-90.264843,"GPS_Lat":38.644311,"CountyName":"St. Louis"}},{"type":"Feature","id":195,"geometry":{"type":"Point","coordinates":[-90.261747,38.6388860000001]},"properties":{"OBJECTID":195,"SignID":269,"StopID":2308,"StopAbbr":"FOEUEB","StopName":"FOREST PARK @ EUCLID EB","OnSt":"FOREST PARK AVE","AtSt":"S EUCLID AVE","Lines":"1, 10, 95","Routes":"3001, 3010, 3095","StopPos":"FS","PrefTrans":"NO","Bench":"NO","Shelter":"NO","Transfer":"NO","ADA":"YES","PubWay":"YES","CountyCode":"29510","Juris":"ST LOUIS","GPS_Lon":-90.261747,"GPS_Lat":38.638886,"CountyName":"St. Louis"}},{"type":"Feature","id":196,"geometry":{"type":"Point","coordinates":[-90.2647259999999,38.6283540000001]},"properties":{"OBJECTID":196,"SignID":269,"StopID":2309,"StopAbbr":"KIOASB","StopName":"KINGSHIGHWAY @ OAKLAND  SB","OnSt":"S KINGSHIGHWAY BLVD","AtSt":"OAKLAND AVE","Lines":"95","Routes":"3095","StopPos":"FS","PrefTrans":"NO","Bench":"NO","Shelter":"NO","Transfer":"YES","ADA":"YES","PubWay":"YES","CountyCode":"29510","Juris":"ST LOUIS","GPS_Lon":-90.264726,"GPS_Lat":38.628354,"CountyName":"St. Louis"}},{"type":"Feature","id":197,"geometry":{"type":"Point","coordinates":[-90.265011,38.626453]},"properties":{"OBJECTID":197,"SignID":269,"StopID":2310,"StopAbbr":"KHMNSB","StopName":"KINGSHIGHWAY @ MANCHESTER SB","OnSt":"S KINGSHIGHWAY BLVD","AtSt":"WISE AVE","Lines":"95","Routes":"3095","StopPos":"NS","PrefTrans":"NO","Bench":"YES","Shelter":"NO","Transfer":"YES","ADA":"YES","PubWay":"YES","CountyCode":"29510","Juris":"ST LOUIS","GPS_Lon":-90.265011,"GPS_Lat":38.626453,"CountyName":"St. Louis"}},{"type":"Feature","id":198,"geometry":{"type":"Point","coordinates":[-90.2667289999999,38.6180840000001]},"properties":{"OBJECTID":198,"SignID":269,"StopID":2313,"StopAbbr":"KHSHSB","StopName":"KINGSHIGHWAY @ SHAW SB","OnSt":"S KINGSHIGHWAY BLVD","AtSt":"SHAW AVE","Lines":"95","Routes":"3095","StopPos":"FS","PrefTrans":"NO","Bench":"NO","Shelter":"NO","Transfer":"NO","ADA":"YES","PubWay":"YES","CountyCode":"29510","Juris":"ST LOUIS","GPS_Lon":-90.266729,"GPS_Lat":38.618084,"CountyName":"St. Louis"}},{"type":"Feature","id":199,"geometry":{"type":"Point","coordinates":[-90.267925,38.611884]},"properties":{"OBJECTID":199,"SignID":269,"StopID":2314,"StopAbbr":"KISOSB","StopName":"KINGSHIGHWAY @ SOUTHWEST SB","OnSt":"S KINGSHIGHWAY BLVD","AtSt":"SOUTHWEST AVE","Lines":"95","Routes":"3095","StopPos":"FS","PrefTrans":"NO","Bench":"NO","Shelter":"NO","Transfer":"YES","ADA":"YES","PubWay":"YES","CountyCode":"29510","Juris":"ST LOUIS","GPS_Lon":-90.267925,"GPS_Lat":38.611884,"CountyName":"St. Louis"}},{"type":"Feature","id":200,"geometry":{"type":"Point","coordinates":[-90.268566,38.608734]},"properties":{"OBJECTID":200,"SignID":269,"StopID":2316,"StopAbbr":"KHMGSB","StopName":"KINGSHIGHWAY @ MAGNOLIA SB","OnSt":"S KINGSHIGHWAY BLVD","AtSt":"MAGNOLIA AVE","Lines":"95","Routes":"3095","StopPos":"FS","PrefTrans":"NO","Bench":"NO","Shelter":"NO","Transfer":"NO","ADA":"NO","PubWay":"NO","CountyCode":"29510","Juris":"ST LOUIS","GPS_Lon":-90.268566,"GPS_Lat":38.608734,"CountyName":"St. Louis"}},{"type":"Feature","id":201,"geometry":{"type":"Point","coordinates":[-90.271066,38.596095]},